ID	PARAMETER_ID	CONCEPT	DOCULECT	LANGUAGE_NAME	VALUE	FORM	TOKENS	GLOTTOLOG	CONCEPTICON	LATITUDE	LONGITUDE	COGNACY	SONARS	PROSTRINGS	CLASSES	LANGID	NUMBERS	WEIGHTS	IPA	DUPLICATES	INFOMAPID	INFERRED_CLASS
23284	114_and	And	CANTONESE	CANTONESE	˨˩ k’aᵖ	k’aᵖ˨˩	kʰ ʌ p̚ ²¹	cant1236	1577				1 7 1 8	AXLT	KEP3	23	23.K.C 23.E.V 23.P.c 23.3.T	1.6 3.0 1.1 1.0	kʰʌp̚²¹	0	9	And:9
23296	114_and	And	PWOLITERARY	PWO_LITERARY	˧ dai	dai˧	d̪ ai ³	phra1235	1577	18.0048	99.6382		1 7 8	AXT	TA6	117	117.T.C 117.A.V 117.6.T	1.6 3.0 1.0	d̪ai³	0	7	And:7
23297	114_and	And	PWOLITERARY	PWO_LITERARY	˦ då	då˦	d̪ ɔ ⁴	phra1235	1577	18.0048	99.6382		1 7 8	AXT	TU6	117	117.T.C 117.U.V 117.6.T	1.6 3.0 1.0	d̪ɔ⁴	0	7	And:7
23298	114_and	And	PWOBASSEIN	PWO_BASSEIN	dä	dä	d̪ ɛ	pwow1235	1577	17.3622	97.7044		1 7	AX	TE	116	116.T.C 116.E.V	2.0 1.5	d̪ɛ	0	7	And:7
23299	114_and	And	PWOMAULMEIN	PWO_MAULMEIN	dä	dä	d̪ ɛ	pwoe1235	1577	15.1915	98.7355		1 7	AX	TE	118	118.T.C 118.E.V	2.0 1.5	d̪ɛ	0	7	And:7
23300	114_and	And	TAUNGTHU	TAUNGTHU	tǒm	tǒm	t̪ ɒ m	paok1235	1577	20.211	97.5969		1 7 4	AXN	TOM	144	144.T.C 144.O.V 144.M.c	2.0 1.5 0.8	t̪ɒm	0	25	And:25
23301	114_and	And	SGALITERARY	SGA_LITERARY	˦ då°	då°˦	d̪ ɔ ⁴	sgaw1245	1577	17.9872	97.7126		1 7 8	AXT	TU6	129	129.T.C 129.U.V 129.6.T	1.6 3.0 1.0	d̪ɔ⁴	0	7	And:7
23302	114_and	And	SGASPOKEN	SGA_SPOKEN	då	då	d̪ ɔ	sgaw1245	1577	17.9872	97.7126		1 7	AX	TU	130	130.T.C 130.U.V	2.0 1.5	d̪ɔ	0	7	And:7
23303	114_and	And	BWE	BWE	gye	gye	gʲ e	bwek1238	1577	18.9796	96.9936		1 7	AX	KE	22	22.K.C 22.E.V	2.0 1.5	gʲe	0	8	And:8
23304	114_and	And	BWE	BWE	kye (between nouns)	kye	kʲ e	bwek1238	1577	18.9796	96.9936		1 7	AX	KE	22	22.K.C 22.E.V	2.0 1.5	kʲe	0	8	And:8
23305	114_and	And	BWE	BWE	lä (bet. phrases)	lä	l ɛ	bwek1238	1577	18.9796	96.9936		5 7	AX	LE	22	22.L.C 22.E.V	2.0 1.5	lɛ	0	1	And:1
23306	114_and	And	WEWAW	WEWAW	då	då	d̪ ɔ	wewa1238	1577	19.020577	96.540526		1 7	AX	TU	157	157.T.C 157.U.V	2.0 1.5	d̪ɔ	0	7	And:7
23307	114_and	And	KARENBYU	KARENBYU	ki	ki	k i	geba1237	1577	19.4991	96.9492		1 7	AX	KI	58	58.K.C 58.I.V	2.0 1.5	ki	0	8	And:8
23308	114_and	And	BRAEO	BRAEO	då	då	d̪ ɔ	geba1237	1577	19.4991	96.9492		1 7	AX	TU	19	19.T.C 19.U.V	2.0 1.5	d̪ɔ	0	7	And:7
23309	114_and	And	KARENNI	KARENNI	nà (between nouns)	nà	n̪ a	east2342	1577	19.8939	98.3359		4 7	AX	NA	59	59.N.C 59.A.V	2.0 1.5	n̪a	0	3	And:3
23310	114_and	And	KARENNI	KARENNI	rå (bet. phrases)	rå	r ɔ	east2342	1577	19.8939	98.3359		5 7	AX	RU	59	59.R.C 59.U.V	2.0 1.5	rɔ	0	1	And:1
23311	114_and	And	GHEKO	GHEKO	då	då	d̪ ɔ	geko1235	1577	19.6741	96.5308		1 7	AX	TU	43	43.T.C 43.U.V	2.0 1.5	d̪ɔ	0	7	And:7
23312	114_and	And	PADAUNG	PADAUNG	då	då	d̪ ɔ	kaya1315	1577	19.5183	97.4138		1 7	AX	TU	110	110.T.C 110.U.V	2.0 1.5	d̪ɔ	0	7	And:7
23313	114_and	And	YEINBA	YEINBA	lö (between nouns and phrases)	lö	l ø	yinb1236	1577	19.0383	97.2134		5 7	AX	LU	161	161.L.C 161.U.V	2.0 1.5	lø	0	1	And:1
23314	114_and	And	MOPWABILICHI	MOPWA_BILICHI	lö	lö	l ø	bili1249	1577				5 7	AX	LU	100	100.L.C 100.U.V	2.0 1.5	lø	0	1	And:1
23315	114_and	And	MOPWABILICHI	MOPWA_BILICHI	lä (between nouns)	lä	l ɛ	bili1249	1577				5 7	AX	LE	100	100.L.C 100.E.V	2.0 1.5	lɛ	0	1	And:1
23316	114_and	And	MOPWABILICHI	MOPWA_BILICHI	då (bet. phrases)	då	d̪ ɔ	bili1249	1577				1 7	AX	TU	100	100.T.C 100.U.V	2.0 1.5	d̪ɔ	0	7	And:7
23317	114_and	And	MOPWADERMUHA	MOPWA_DERMUHA	lö (between nouns and phrases)	lö	l ø	derm1238	1577				5 7	AX	LU	101	101.L.C 101.U.V	2.0 1.5	lø	0	1	And:1
23323	114_and	And	MANCHATIORPATNI	MANCHATI_OR_PATNI	uï	uï	u ɪ	karb1241	1577	25.7317	93.0462		7 7	XZ	YI	88	88.Y.V 88.I.V	1.5 0.8	uɪ	0	19	And:19
23324	114_and	And	MANCHATIORPATNI	MANCHATI_OR_PATNI	e	e	e	karb1241	1577	25.7317	93.0462		7	X	E	88	88.E.V	1.5	e	0	17	And:17
23325	114_and	And	KANASHI	KANASHI	hed	hed	h e d̪	kana1283	1577	32.2843	77.1553		3 7 1	AXN	HET	56	56.H.C 56.E.V 56.T.c	2.0 1.5 0.8	hed̪	0	16	And:16
23326	114_and	And	KANAURI	KANAURI	ai	ai	ai	kinn1249	1577	31.3688	78.3148		7	X	A	57	57.A.V	1.5	ai	0	17	And:17
23327	114_and	And	RANGKAS	RANGKAS	gār	gār	g ʌː r	rang1266	1577	29.2278	80.0845		1 7 5	AXN	KER	121	121.K.C 121.E.V 121.R.c	2.0 1.5 0.8	gʌːr	0	8	And:8
23328	114_and	And	RANGKAS	RANGKAS	gāṅr	gāṅr	g ʌː ŋ r	rang1266	1577	29.2278	80.0845		1 7 4 5	AXBC	KENR	121	121.K.C 121.E.V 121.N.C 121.R.C	2.0 1.5 1.75 1.5	gʌːŋr	0	29	And:29
23329	114_and	And	DHIMAL	DHIMAL	ai-dauṅ (?)	ai-dauṅ	ai + d̪ au ŋ	dhim1246	1577	26.6283	88.3798		7 9 1 7 4	X_AXN	A_TAN	37	37.A.V 37._._ 37.T.C 37.A.V 37.N.c	1.5 0.0 2.0 1.5 0.8	ai+d̪auŋ	0	7	And:7
23330	114_and	And	THAMI	THAMI	ani	ani	ʌ n̪ i	than1259	1577	28.7554	85.7657		7 4 7	XBZ	ENI	149	149.E.V 149.N.C 149.I.V	1.5 1.75 0.8	ʌn̪i	0	3	And:3
23331	114_and	And	LIMBU	LIMBU	nū	nū	n̪ uː	limb1266	1577	27.2703	87.8859		4 7	AX	NY	79	79.N.C 79.Y.V	2.0 1.5	n̪uː	0	3	And:3
23332	114_and	And	YAKHA	YAKHA	i-k’ok	i-k’ok	i + kʰ o k	yakk1236	1577	27.3714	87.9306		7 9 1 7 1	X_AXN	I_KUK	159	159.I.V 159._._ 159.K.C 159.U.V 159.K.c	1.5 0.0 2.0 1.5 0.8	i+kʰok	0	27	And:27
23333	114_and	And	KHAMBU	KHAMBU	aiyāh	aiyāh	ai j ʌː h	kham1288	1577				7 6 7 3	XBYN	AJEH	62	62.A.V 62.J.C 62.E.V 62.H.c	1.5 1.75 1.3 0.8	aijʌːh	0	10	And:10
23334	114_and	And	LAMBICHHONG	LAMBICHHONG	lā	lā	l ʌː	yakk1236	1577	27.3714	87.9306		5 7	AX	LE	76	76.L.C 76.E.V	2.0 1.5	lʌː	0	1	And:1
23335	114_and	And	LAMBICHHONG	LAMBICHHONG	ch’ā	ch’ā	tʃʰ ʌː	yakk1236	1577	27.3714	87.9306		1 7	AX	TE	76	76.T.C 76.E.V	2.0 1.5	tʃʰʌː	0	7	And:7
23336	114_and	And	WALING	WALING	ch’a	ch’a	tʃʰ ʌ	wali1261	1577	26.6369	86.4837		1 7	AX	TE	156	156.T.C 156.E.V	2.0 1.5	tʃʰʌ	0	7	And:7
23337	114_and	And	CHHINGTANG	CHHINGTANG	yē	yē	j eː	chhi1245	1577	26.961	87.1899		6 7	AX	JE	28	28.J.C 28.E.V	2.0 1.5	jeː	0	10	And:10
23338	114_and	And	CHHINGTANG	CHHINGTANG	naṅ	naṅ	n̪ ʌ ŋ	chhi1245	1577	26.961	87.1899		4 7 4	AXN	NEN	28	28.N.C 28.E.V 28.N.c	2.0 1.5 0.8	n̪ʌŋ	0	3	And:3
23339	114_and	And	CHHINGTANG	CHHINGTANG	yāṅ	yāṅ	j ʌː ŋ	chhi1245	1577	26.961	87.1899		6 7 4	AXN	JEN	28	28.J.C 28.E.V 28.N.c	2.0 1.5 0.8	jʌːŋ	0	10	And:10
23340	114_and	And	NACHHERENG	NACHHERENG	sa	sa	s ʌ	nach1240	1577	27.4202	86.7001		3 7	AX	SE	106	106.S.C 106.E.V	2.0 1.5	sʌ	0	8	And:8
23341	114_and	And	NACHHERENG	NACHHERENG	lō	lō	l oː	nach1240	1577	27.4202	86.7001		5 7	AX	LU	106	106.L.C 106.U.V	2.0 1.5	loː	0	1	And:1
23342	114_and	And	KULUNG	KULUNG	sō	sō	s oː	kulu1253	1577	27.1606	87.5717		3 7	AX	SU	69	69.S.C 69.U.V	2.0 1.5	soː	0	8	And:8
23343	114_and	And	THULUNG	THULUNG	nuṅ	nuṅ	n̪ u ŋ	drun1238	1577	28.00792	98.49449		4 7 4	AXN	NYN	152	152.N.C 152.Y.V 152.N.c	2.0 1.5 0.8	n̪uŋ	0	3	And:3
23344	114_and	And	THULUNG	THULUNG	bō	bō	b oː	drun1238	1577	28.00792	98.49449		1 7	AX	PU	152	152.P.C 152.U.V	2.0 1.5	boː	0	8	And:8
23345	114_and	And	CHAURASYA	CHAURASYA	yē	yē	j eː	wamb1257	1577	27.14808	86.47646		6 7	AX	JE	27	27.J.C 27.E.V	2.0 1.5	jeː	0	10	And:10
23346	114_and	And	RAIORJIMDAR	RAI_OR_JIMDAR	kāi	kāi	k aːi	athp1241	1577	26.8794	87.3296		1 7	AX	KA	120	120.K.C 120.A.V	2.0 1.5	kaːi	0	17	And:17
23347	114_and	And	GURUNG	GURUNG	ra	ra	r ʌ	east2345	1577	28.4368	84.58145		5 7	AX	RE	44	44.R.C 44.E.V	2.0 1.5	rʌ	0	1	And:1
23348	114_and	And	MURMI	MURMI	ra	ra	r ʌ	west2415	1577	28.0239	85.0563		5 7	AX	RE	105	105.R.C 105.E.V	2.0 1.5	rʌ	0	1	And:1
23349	114_and	And	SUNWAR	SUNWAR	āni	āni	ʌː n̪ i	sunw1242	1577	27.5201	86.2476		7 4 7	XBZ	ENI	138	138.E.V 138.N.C 138.I.V	1.5 1.75 0.8	ʌːn̪i	0	3	And:3
23350	114_and	And	MAGARI	MAGARI	ra	ra	r ʌ	west2418	1577	28.2462	83.511		5 7	AX	RE	86	86.R.C 86.E.V	2.0 1.5	rʌ	0	1	And:1
23351	114_and	And	NEWARI	NEWARI	o	o	o	newa1246	1577	27.2614	84.9577		7	X	U	108	108.U.V	1.5	o	0	17	And:17
23352	114_and	And	PADIPAHRIORPAHI	PADI_PAHRI_OR_PAHI	o	o	o	newa1246	1577	27.2614	84.9577		7	X	U	111	111.U.V	1.5	o	0	17	And:17
23353	114_and	And	RONGORLEPCHA	RONG_OR_LEPCHA	un	un	u n̪	lepc1244	1577	27.0869	88.5726		7 4	XN	YN	124	124.Y.V 124.N.c	1.5 0.8	un̪	0	21	And:21
23355	114_and	And	ABOR	ABOR	lāṅ	lāṅ	l ʌː ŋ	bori1243	1577	27.62812	94.3538		5 7 4	AXN	LEN	1	1.L.C 1.E.V 1.N.c	2.0 1.5 0.8	lʌːŋ	0	1	And:1
23356	114_and	And	MIRI	MIRI	lāṅ	lāṅ	l ʌː ŋ	misi1242	1577	27.418	94.69		5 7 4	AXN	LEN	98	98.L.C 98.E.V 98.N.c	2.0 1.5 0.8	lʌːŋ	0	1	And:1
23357	114_and	And	DAFLA	DAFLA	lā	lā	l ʌː	nyis1236	1577	27.278263	93.675529		5 7	AX	LE	33	33.L.C 33.E.V	2.0 1.5	lʌː	0	1	And:1
23358	114_and	And	LOLONI	LOLO_NI	˦˨ nä	nä˦˨	n̪ ɛ ⁴²	axiy1235	1577	24.6009	103.713		4 7 8	AXT	NE3	83	83.N.C 83.E.V 83.3.T	1.6 3.0 1.0	n̪ɛ⁴²	0	3	And:3
23360	114_and	And	LOLOPHO	LOLO_PHO	˦˨ lä	lä˦˨	l ɛ ⁴²	lagh1245	1577	22.2674	103.929		5 7 8	AXT	LE3	84	84.L.C 84.E.V 84.3.T	1.6 3.0 1.0	lɛ⁴²	0	1	And:1
23361	114_and	And	AKAKA	A_KA_KA	nä̃	nä̃	n̪ ɛ̃	akha1245	1577	21.2309	100.964		4 7	AX	NE	3	3.N.C 3.E.V	2.0 1.5	n̪ɛ̃	0	3	And:3
23362	114_and	And	LISU	LISU	ᵃ ˧ bye	ᵃbye˧	ă b j e ³	lisu1250	1577	26.91	98.94		7 1 6 7 8	XBCYT	APJE6	81	81.A.V 81.P.C 81.J.C 81.E.V 81.6.T	3.0 1.3 1.2 3.0 1.0	ăbje³	0	18	And:18
23363	114_and	And	LISHAOYAOYIN	LISHAO_YAOYIN	bä	bä	b ɛ	lisu1250	1577	26.91	98.94		1 7	AX	PE	80	80.P.C 80.E.V	2.0 1.5	bɛ	0	8	And:8
23364	114_and	And	LAHU	LAHU	lä	lä	l ɛ	lahu1253	1577	21.2701	100.214		5 7	AX	LE	73	73.L.C 73.E.V	2.0 1.5	lɛ	0	1	And:1
23365	114_and	And	BHOTIATIBETANWRITTEN	BHOTIA_TIBETAN_WRITTEN	daṅ	daṅ	d̪ ʌ ŋ	sikk1242	1577	27.85795	88.59153		1 7 4	AXN	TEN	17	17.T.C 17.E.V 17.N.c	2.0 1.5 0.8	d̪ʌŋ	0	7	And:7
23366	114_and	And	BHOTIATIBETANSPOKEN	BHOTIA_TIBETAN_SPOKEN	d’aṅ	d’aṅ	d̪ʰ ʌ ŋ	sikk1242	1577	27.85795	88.59153		1 7 4	AXN	TEN	16	16.T.C 16.E.V 16.N.c	2.0 1.5 0.8	d̪ʰʌŋ	0	7	And:7
23367	114_and	And	BALTI	BALTI	naṅ	naṅ	n̪ ʌ ŋ	balt1258	1577	34.4491	77.2859		4 7 4	AXN	NEN	12	12.N.C 12.E.V 12.N.c	2.0 1.5 0.8	n̪ʌŋ	0	3	And:3
23368	114_and	And	BALTI	BALTI	yaṅ	yaṅ	j ʌ ŋ	balt1258	1577	34.4491	77.2859		6 7 4	AXN	JEN	12	12.J.C 12.E.V 12.N.c	2.0 1.5 0.8	jʌŋ	0	10	And:10
23369	114_and	And	BHOTIAOFPURIK	BHOTIA_OF_PURIK	naṅ	naṅ	n̪ ʌ ŋ	puri1258	1577	34.3386	76.0127		4 7 4	AXN	NEN	15	15.N.C 15.E.V 15.N.c	2.0 1.5 0.8	n̪ʌŋ	0	3	And:3
23370	114_and	And	BHOTIAOFPURIK	BHOTIA_OF_PURIK	yaṅ	yaṅ	j ʌ ŋ	puri1258	1577	34.3386	76.0127		6 7 4	AXN	JEN	15	15.J.C 15.E.V 15.N.c	2.0 1.5 0.8	jʌŋ	0	10	And:10
23371	114_and	And	BHOTIAOFPURIK	BHOTIA_OF_PURIK	daṅ	daṅ	d̪ ʌ ŋ	puri1258	1577	34.3386	76.0127		1 7 4	AXN	TEN	15	15.T.C 15.E.V 15.N.c	2.0 1.5 0.8	d̪ʌŋ	0	7	And:7
23372	114_and	And	LADAKHI	LADAKHI	daṅ	daṅ	d̪ ʌ ŋ	lada1244	1577	33.468	80.6013		1 7 4	AXN	TEN	71	71.T.C 71.E.V 71.N.c	2.0 1.5 0.8	d̪ʌŋ	0	7	And:7
23373	114_and	And	LADAKHI	LADAKHI	yaṅ	yaṅ	j ʌ ŋ	lada1244	1577	33.468	80.6013		6 7 4	AXN	JEN	71	71.J.C 71.E.V 71.N.c	2.0 1.5 0.8	jʌŋ	0	10	And:10
23374	114_and	And	LADAKHIOFSPITI	LADAKHI_OF_SPITI	yaṅ	yaṅ	j ʌ ŋ	spit1240	1577	32.526	77.833		6 7 4	AXN	JEN	72	72.J.C 72.E.V 72.N.c	2.0 1.5 0.8	jʌŋ	0	10	And:10
23375	114_and	And	KAGATE	KAGATE	yaṅ	yaṅ	j ʌ ŋ	kaga1252	1577	27.4492	86.1675		6 7 4	AXN	JEN	55	55.J.C 55.E.V 55.N.c	2.0 1.5 0.8	jʌŋ	0	10	And:10
23376	114_and	And	SHARPA	SHARPA	ta-ruṅ	ta-ruṅ	t̪ ʌ + r u ŋ	sher1255	1577	27.674	86.9994		1 7 9 5 7 4	AX_AXN	TE_RYN	131	131.T.C 131.E.V 131._._ 131.R.C 131.Y.V 131.N.c	2.0 1.5 0.0 2.0 1.5 0.8	t̪ʌ+ruŋ	0	13	And:13
23377	114_and	And	DANJONGKA	DANJONGKA	ta-ruṅ	ta-ruṅ	t̪ ʌ + r u ŋ	sikk1242	1577	27.85795	88.59153		1 7 9 5 7 4	AX_AXN	TE_RYN	34	34.T.C 34.E.V 34._._ 34.R.C 34.Y.V 34.N.c	2.0 1.5 0.0 2.0 1.5 0.8	t̪ʌ+ruŋ	0	13	And:13
23378	114_and	And	HLOKE	HLOKE	ta-ru-ra	ta-ru-ra	t̪ ʌ + r u + r ʌ	lowa1242	1577	29.0324	83.8959		1 7 9 5 7 9 5 7	AX_AX_AX	TE_RY_RE	49	49.T.C 49.E.V 49._._ 49.R.C 49.Y.V 49._._ 49.R.C 49.E.V	2.0 1.5 0.0 2.0 1.5 0.0 2.0 1.5	t̪ʌ+ru+rʌ	0	13	And:13
23379	114_and	And	BODOORBARA	BODO_OR_BARA	bǔ	bǔ	b ŏ	bodo1269	1577	26.1	92.0		1 7	AX	PU	18	18.P.C 18.U.V	2.0 1.5	bŏ	0	8	And:8
23380	114_and	And	DEURICHUTIYA	DEURI_CHUTIYA	arke	arke	ʌ r k e	deor1238	1577	26.86152	93.70572		7 5 1 7	XMBZ	ERKE	36	36.E.V 36.R.c 36.K.C 36.E.V	1.5 1.1 1.75 0.8	ʌrke	0	14	And:14
23381	114_and	And	ANGAMI	ANGAMI	mu	mu	m u	anga1288	1577	25.6841	93.8668		4 7	AX	MY	7	7.M.C 7.Y.V	2.0 1.5	mu	0	5	And:5
23382	114_and	And	ANGAMI	ANGAMI	ri	ri	r i	anga1288	1577	25.6841	93.8668		5 7	AX	RI	7	7.R.C 7.I.V	2.0 1.5	ri	0	1	And:1
23383	114_and	And	SEMA	SEMA	-ṅwo	-ṅwo	+ ŋ w o	sumi1235	1577	25.9996	94.4235		9 4 6 7	_ACX	_NWU	127	127._._ 127.N.C 127.W.C 127.U.V	0.0 2.0 1.5 1.5	+ŋwo	0	23	And:23
23384	114_and	And	SEMA	SEMA	eno	eno	e n̪ o	sumi1235	1577	25.9996	94.4235		7 4 7	XBZ	ENU	127	127.E.V 127.N.C 127.U.V	1.5 1.75 0.8	en̪o	0	3	And:3
23385	114_and	And	SEMA	SEMA	ino	ino	i n̪ o	sumi1235	1577	25.9996	94.4235		7 4 7	XBZ	INU	127	127.I.V 127.N.C 127.U.V	1.5 1.75 0.8	in̪o	0	3	And:3
23386	114_and	And	RENGMA	RENGMA	tsonā-i	tsonā-i	ts o n̪ ʌː + i	nort2725	1577	26.4492	94.5683		2 7 4 7 9 7	AXBZ_X	CUNE_I	122	122.C.C 122.U.V 122.N.C 122.E.V 122._._ 122.I.V	2.0 1.5 1.75 0.8 0.0 1.5	tson̪ʌː+i	0	7	And:7
23387	114_and	And	KEZAMA	KEZAMA	yi	yi	j i	khez1235	1577	25.7078	94.3114		6 7	AX	JI	60	60.J.C 60.I.V	2.0 1.5	ji	0	10	And:10
23388	114_and	And	SOPVOMA	SOPVOMA	oṅē	oṅē	o ŋ eː	maon1238	1577	25.3836	94.0035		7 4 7	XBZ	UNE	137	137.U.V 137.N.C 137.E.V	1.5 1.75 0.8	oŋeː	0	3	And:3
23389	114_and	And	AO	AO	āseir	āseir	ʌː s ei r	aona1235	1577	26.3241	94.3824		7 3 7 5	XBYN	ESER	8	8.E.V 8.S.C 8.E.V 8.R.c	1.5 1.75 1.3 0.8	ʌːseir	0	6	And:6
23390	114_and	And	HLOTA	HLOTA	nā	nā	n̪ ʌː	loth1237	1577	26.01396	94.04355		4 7	AX	NE	50	50.N.C 50.E.V	2.0 1.5	n̪ʌː	0	3	And:3
23391	114_and	And	HLOTA	HLOTA	sūhā	sūhā	s uː h ʌː	loth1237	1577	26.01396	94.04355		3 7 3 7	AXBZ	SYHE	50	50.S.C 50.Y.V 50.H.C 50.E.V	2.0 1.5 1.75 0.8	suːhʌː	0	28	And:28
23392	114_and	And	THUKUMI	THUKUMI	apunu	apunu	ʌ p u n̪ u	sang1321	1577	25.8581	94.6279		7 1 7 4 7	XBYBZ	EPYNY	151	151.E.V 151.P.C 151.Y.V 151.N.C 151.Y.V	1.5 1.75 1.3 1.75 0.8	ʌpun̪u	0	3	And:3
23393	114_and	And	YACHUMI	YACHUMI	a-ṅibēyā	a-ṅibēyā	ʌ + ŋ i b eː j ʌː	yimc1240	1577	25.7675	94.8087		7 9 4 7 1 7 6 7	X_AXBYBZ	E_NIPEJE	158	158.E.V 158._._ 158.N.C 158.I.V 158.P.C 158.E.V 158.J.C 158.E.V	1.5 0.0 2.0 1.5 1.75 1.3 1.75 0.8	ʌ+ŋibeːjʌː	0	26	And:26
23394	114_and	And	TAMLU	TAMLU	ma	ma	m ʌ	phom1236	1577	26.4715	94.7476		4 7	AX	ME	141	141.M.C 141.E.V	2.0 1.5	mʌ	0	5	And:5
23395	114_and	And	CHANG	CHANG	tokē	tokē	t̪ o k eː	chan1313	1577	26.4336	94.9536		1 7 1 7	AXBZ	TUKE	26	26.T.C 26.U.V 26.K.C 26.E.V	2.0 1.5 1.75 0.8	t̪okeː	0	7	And:7
23396	114_and	And	KABUI	KABUI	ā-kum-nā	ā-kum-nā	ʌː + k u m + n̪ ʌː	rong1266	1577	25.098	93.7869		7 9 1 7 4 9 4 7	X_AXN_AX	E_KYM_NE	53	53.E.V 53._._ 53.K.C 53.Y.V 53.M.c 53._._ 53.N.C 53.E.V	1.5 0.0 2.0 1.5 0.8 0.0 2.0 1.5	ʌː+kum+n̪ʌː	0	15	And:15
23397	114_and	And	MIKIR	MIKIR	ānsi	ānsi	ʌː n̪ s i	karb1241	1577	25.7317	93.0462		7 4 3 7	XMBZ	ENSI	97	97.E.V 97.N.c 97.S.C 97.I.V	1.5 1.1 1.75 0.8	ʌːn̪si	0	21	And:21
23398	114_and	And	MIKIR	MIKIR	pen	pen	p e n̪	karb1241	1577	25.7317	93.0462		1 7 4	AXN	PEN	97	97.P.C 97.E.V 97.N.c	2.0 1.5 0.8	pen̪	0	21	And:21
23399	114_and	And	MIKIR	MIKIR	ā-kō	ā-kō	ʌː + k oː	karb1241	1577	25.7317	93.0462		7 9 1 7	X_AX	E_KU	97	97.E.V 97._._ 97.K.C 97.U.V	1.5 0.0 2.0 1.5	ʌː+koː	0	30	And:30
23400	114_and	And	TANGKHUL	TANGKHUL	āṅka-la	āṅka-la	ʌː ŋ k ʌ + l ʌ	ukhr1238	1577				7 4 1 7 9 5 7	XMBZ_AX	ENKE_LE	142	142.E.V 142.N.c 142.K.C 142.E.V 142._._ 142.L.C 142.E.V	1.5 1.1 1.75 0.8 0.0 2.0 1.5	ʌːŋkʌ+lʌ	0	24	And:24
23401	114_and	And	TANGKHUL	TANGKHUL	la	la	l ʌ	ukhr1238	1577				5 7	AX	LE	142	142.L.C 142.E.V	2.0 1.5	lʌ	0	1	And:1
23402	114_and	And	MARING	MARING	-nuṅ	-nuṅ	+ n̪ u ŋ	mari1416	1577	24.2854	94.0723		9 4 7 4	_AXN	_NYN	93	93._._ 93.N.C 93.Y.V 93.N.c	0.0 2.0 1.5 0.8	+n̪uŋ	0	3	And:3
23403	114_and	And	CHINGPAORKACHIN	CHINGPA_OR_KACHIN	te	te	t̪ e	kach1280	1577	25.4634	97.3278		1 7	AX	TE	31	31.T.C 31.E.V	2.0 1.5	t̪e	0	7	And:7
23405	114_and	And	SINGPHO	SINGPHO	maṅ	maṅ	m ʌ ŋ	sing1264	1577	27.296	95.606		4 7 4	AXN	MEN	134	134.M.C 134.E.V 134.N.c	2.0 1.5 0.8	mʌŋ	0	5	And:5
23407	114_and	And	MEITHEI	MEITHEI	a-du-gā	a-du-gā	ʌ + d̪ u + g ʌː	mani1292	1577	24.4409	93.3426		7 9 1 7 9 1 7	X_AX_AX	E_TY_KE	95	95.E.V 95._._ 95.T.C 95.Y.V 95._._ 95.K.C 95.E.V	1.5 0.0 2.0 1.5 0.0 2.0 1.5	ʌ+d̪u+gʌː	0	20	And:20
23408	114_and	And	THADO	THADO	yōṅ	yōṅ	j oː ŋ	thad1238	1577	24.096	93.722		6 7 4	AXN	JUN	148	148.J.C 148.U.V 148.N.c	2.0 1.5 0.8	joːŋ	0	10	And:10
23409	114_and	And	THADO	THADO	lē	lē	l eː	thad1238	1577	24.096	93.722		5 7	AX	LE	148	148.L.C 148.E.V	2.0 1.5	leː	0	1	And:1
23410	114_and	And	SIYIN	SIYIN	lē	lē	l eː	siyi1240	1577	23.8192	93.6884		5 7	AX	LE	136	136.L.C 136.E.V	2.0 1.5	leː	0	1	And:1
23411	114_and	And	LAI	LAI	hẽ	hẽ	h ẽ	haka1240	1577	22.8735	92.8208		3 7	AX	HE	74	74.H.C 74.E.V	2.0 1.5	hẽ	0	16	And:16
23412	114_and	And	LUSHEI	LUSHEI	le°	le°	l e	lush1249	1577	22.6138	92.6247		5 7	AX	LE	85	85.L.C 85.E.V	2.0 1.5	le	0	1	And:1
23413	114_and	And	BANJOGI	BANJOGI	ā-daṅ	ā-daṅ	ʌː + d̪ ʌ ŋ	zotu1235	1577	22.5298	93.29		7 9 1 7 4	X_AXN	E_TEN	13	13.E.V 13._._ 13.T.C 13.E.V 13.N.c	1.5 0.0 2.0 1.5 0.8	ʌː+d̪ʌŋ	0	7	And:7
23414	114_and	And	PANKHU	PANKHU	ā-daṅ	ā-daṅ	ʌː + d̪ ʌ ŋ	pank1249	1577	22.6797	92.9461		7 9 1 7 4	X_AXN	E_TEN	112	112.E.V 112._._ 112.T.C 112.E.V 112.N.c	1.5 0.0 2.0 1.5 0.8	ʌː+d̪ʌŋ	0	7	And:7
23415	114_and	And	HALLAM	HALLAM	nūk-chū	nūk-chū	n̪ uː k + tʃ uː	fala1243	1577	23.7892833333	92.3254633333		4 7 1 9 1 7	AXN_AX	NYK_TY	47	47.N.C 47.Y.V 47.K.c 47._._ 47.T.C 47.Y.V	2.0 1.5 0.8 0.0 2.0 1.5	n̪uːk+tʃuː	0	10	And:10
23416	114_and	And	LANGRONG	LANGRONG	chūn	chūn	tʃ uː n̪	lang1312	1577				1 7 4	AXN	TYN	77	77.T.C 77.Y.V 77.N.c	2.0 1.5 0.8	tʃuːn̪	0	7	And:7
23417	114_and	And	AIMOL	AIMOL	k’ana-k’ana-ko	k’ana-k’ana-ko	kʰ ʌ n̪ ʌ + kʰ ʌ n̪ ʌ + k o	aimo1244	1577	24.6437	94.3556		1 7 4 7 9 1 7 4 7 9 1 7	AXBZ_AXBZ_AX	KENE_KENE_KU	2	2.K.C 2.E.V 2.N.C 2.E.V 2._._ 2.K.C 2.E.V 2.N.C 2.E.V 2._._ 2.K.C 2.U.V	2.0 1.5 1.75 0.8 0.0 2.0 1.5 1.75 0.8 0.0 2.0 1.5	kʰʌn̪ʌ+kʰʌn̪ʌ+ko	0	2	And:2
23418	114_and	And	CHIRU	CHIRU	-ta-nā	-ta-nā	+ t̪ ʌ + n̪ ʌː	chir1283	1577	25.4643	94.4072		9 1 7 9 4 7	_AX_AX	_TE_NE	32	32._._ 32.T.C 32.E.V 32._._ 32.N.C 32.E.V	0.0 2.0 1.5 0.0 2.0 1.5	+t̪ʌ+n̪ʌː	0	12	And:12
23419	114_and	And	KOLHRENG	KOLHRENG	hā-ko	hā-ko	h ʌː + k o	kolh1240	1577				3 7 9 1 7	AX_AX	HE_KU	67	67.H.C 67.E.V 67._._ 67.K.C 67.U.V	2.0 1.5 0.0 2.0 1.5	hʌː+ko	0	16	And:16
23420	114_and	And	KOM	KOM	k’an-chūṅ	k’an-chūṅ	kʰ ʌ n̪ + tʃ uː ŋ	komi1270	1577	24.8688	94.534		1 7 4 9 1 7 4	AXN_AXN	KEN_TYN	68	68.K.C 68.E.V 68.N.c 68._._ 68.T.C 68.Y.V 68.N.c	2.0 1.5 0.8 0.0 2.0 1.5 0.8	kʰʌn̪+tʃuːŋ	0	7	And:7
23421	114_and	And	PURUM	PURUM	nā-mā	nā-mā	n̪ ʌː + m ʌː	puru1266	1577	25.3887	95.0935		4 7 9 4 7	AX_AX	NE_ME	115	115.N.C 115.E.V 115._._ 115.M.C 115.E.V	2.0 1.5 0.0 2.0 1.5	n̪ʌː+mʌː	0	3	And:3
23422	114_and	And	ANAL	ANAL	dāl dāl-ū t’i-maṅ	dāl dāl-ū t’i-maṅ	d̪ ʌː l + d̪ ʌː l + uː + t̪ʰ i + m ʌ ŋ	anal1239	1577	24.0506	94.2806		1 7 5 9 1 7 5 9 7 9 1 7 9 4 7 4	AXN_AXN_X_AX_AXN	TEL_TEL_Y_TI_MEN	5	5.T.C 5.E.V 5.L.c 5._._ 5.T.C 5.E.V 5.L.c 5._._ 5.Y.V 5._._ 5.T.C 5.I.V 5._._ 5.M.C 5.E.V 5.N.c	2.0 1.5 0.8 0.0 2.0 1.5 0.8 0.0 1.5 0.0 2.0 1.5 0.0 2.0 1.5 0.8	d̪ʌːl+d̪ʌːl+uː+t̪ʰi+mʌŋ	0	4	And:4
23423	114_and	And	HIROILAMGANG	HIROI_LAMGANG	ta-dā	ta-dā	t̪ ʌ + d̪ ʌː	lamk1238	1577	24.1523	94.2706		1 7 9 1 7	AX_AX	TE_TE	48	48.T.C 48.E.V 48._._ 48.T.C 48.E.V	2.0 1.5 0.0 2.0 1.5	t̪ʌ+d̪ʌː	0	7	And:7
23424	114_and	And	TAUNGTHA	TAUNGTHA	nā	nā	n̪ ʌː	paok1235	1577	20.211	97.5969		4 7	AX	NE	143	143.N.C 143.E.V	2.0 1.5	n̪ʌː	0	3	And:3
23425	114_and	And	CHINBON	CHINBON	nī-k’un-nai	nī-k’un-nai	n̪ iː + kʰ u n̪ + n̪ ai	chin1478	1577	20.0776	94.0506		4 7 9 1 7 4 9 4 7	AX_AXN_AX	NI_KYN_NA	30	30.N.C 30.I.V 30._._ 30.K.C 30.Y.V 30.N.c 30._._ 30.N.C 30.A.V	2.0 1.5 0.0 2.0 1.5 0.8 0.0 2.0 1.5	n̪iː+kʰun̪+n̪ai	0	11	And:11
23426	114_and	And	THAYETMYOCHIN	THAYETMYO_CHIN	nu	nu	n̪ u	thay1247	1577				4 7	AX	NY	150	150.N.C 150.Y.V	2.0 1.5	n̪u	0	3	And:3
23427	114_and	And	SHOORKHYANG	SHO_OR_KHYANG	nü	nü	n̪ y	asho1236	1577	21.393	93.5069		4 7	AX	NY	132	132.N.C 132.Y.V	2.0 1.5	n̪y	0	3	And:3
23428	114_and	And	KHAMI	KHAMI	laik	laik	l ai k	kham1284	1577				5 7 1	AXN	LAK	63	63.L.C 63.A.V 63.K.c	2.0 1.5 0.8	laik	0	1	And:1
23429	114_and	And	KADU	KADU	yauᵏ	yauᵏ	j au k̚	kadu1254	1577				6 7 1	AXN	JAK	54	54.J.C 54.A.V 54.K.c	2.0 1.5 0.8	jauk̚	0	10	And:10
23430	114_and	And	MARU	MARU	ä	ä	ɛ	maru1249	1577	24.942535	99.8338		7	X	E	94	94.E.V	1.5	ɛ	0	17	And:17
23431	114_and	And	MAINGTHAORNGACHANG	MAINGTHA_OR_NGACHANG	lå	lå	l ɔ	acha1249	1577	24.3479	97.7438		5 7	AX	LU	87	87.L.C 87.U.V	2.0 1.5	lɔ	0	1	And:1
23432	114_and	And	PHUNSAMONG	PHUN_SAMONG	lå (with)	lå	l ɔ	hpon1238	1577	24.4606	97.1142		5 7	AX	LU	114	114.L.C 114.U.V	2.0 1.5	lɔ	0	1	And:1
23434	114_and	And	MRU	MRU	ādoṅ-ey	ādoṅ-ey	ʌː d̪ o ŋ + e j	mruu1242	1577	24.154	90.6317		7 1 7 4 9 7 6	XBYN_XN	ETUN_EJ	104	104.E.V 104.T.C 104.U.V 104.N.c 104._._ 104.E.V 104.J.c	1.5 1.75 1.3 0.8 0.0 1.5 0.8	ʌːd̪oŋ+ej	0	22	And:22
23435	114_and	And	BURMESEWRITTEN	BURMESE_WRITTEN	nhaṅ°	nhaṅ°	n̪ h ʌ ŋ	nucl1310	1577	20.7926	93.9665		4 3 7 4	ACYN	NHEN	21	21.N.C 21.H.C 21.E.V 21.N.c	2.0 1.5 1.3 0.8	n̪hʌŋ	0	3	And:3
23436	114_and	And	BURMESESPOKEN	BURMESE_SPOKEN	˥˦ hniṅ°	hniṅ°˥˦	h n̪ i ŋ ⁵⁴	nucl1310	1577	20.7926	93.9665		3 4 7 4 8	ACXLT	HNIN3	20	20.H.C 20.N.C 20.I.V 20.N.c 20.3.T	1.6 1.2 3.0 1.1 1.0	hn̪iŋ⁵⁴	0	3	And:3
23437	114_and	And	ARAKANESE	ARAKANESE	hnàn	hnàn	h n̪ a n̪	marm1234	1577	22.759948	92.210748		3 4 7 4	ACXN	HNAN	9	9.H.C 9.N.C 9.A.V 9.N.c	2.0 1.5 1.5 0.8	hn̪an̪	0	3	And:3
23438	114_and	And	TAUNGYO	TAUNGYO	nå	nå	n̪ ɔ	taun1248	1577	20.4104	96.7401		4 7	AX	NU	145	145.N.C 145.U.V	2.0 1.5	n̪ɔ	0	3	And:3
23439	114_and	And	DANU	DANU	nä	nä	n̪ ɛ	danu1251	1577				4 7	AX	NE	35	35.N.C 35.E.V	2.0 1.5	n̪ɛ	0	3	And:3
23440	114_and	And	INTHA	INTHA	nā	nā	n̪ ʌː	inth1239	1577				4 7	AX	NE	52	52.N.C 52.E.V	2.0 1.5	n̪ʌː	0	3	And:3
23441	114_and	And	TAVOYAN	TAVOYAN	nā	nā	n̪ ʌː	tavo1242	1577	14.1078	98.194		4 7	AX	NE	146	146.N.C 146.E.V	2.0 1.5	n̪ʌː	0	3	And:3
56128	53_ass	Ass	MANDARIN	MANDARIN	˨ lū	lū˨	l u ²	mand1415	1862	40.0209	116.228		5 7 8	AXT	LY6	89	89.L.C 89.Y.V 89.6.T	1.6 3.0 1.0	lu²	0	31	Ass:31
56129	53_ass	Ass	CANTONESE	CANTONESE	˨ lui	lui˨	l u i ²	cant1236	1862				5 7 7 8	AXYT	LYI6	23	23.L.C 23.Y.V 23.I.V 23.6.T	1.6 3.0 3.0 1.0	lui²	0	31	Ass:31
56137	53_ass	Ass	PWOBASSEIN	PWO_BASSEIN	k^àθi yaũ	k^àθi yaũ	k a θ i + j ʌ ũ	pwow1235	1862	17.3622	97.7044		1 7 3 7 9 6 7 7	AXBZ_AXZ	KADI_JEY	116	116.K.C 116.A.V 116.D.C 116.I.V 116._._ 116.J.C 116.E.V 116.Y.V	2.0 1.5 1.75 0.8 0.0 2.0 1.5 0.8	kaθi+jʌũ	0	41	Ass:41
56138	53_ass	Ass	PWOMAULMEIN	PWO_MAULMEIN	k^àθi yaũ	k^àθi yaũ	k a θ i + j ʌ ũ	pwoe1235	1862	15.1915	98.7355		1 7 3 7 9 6 7 7	AXBZ_AXZ	KADI_JEY	118	118.K.C 118.A.V 118.D.C 118.I.V 118._._ 118.J.C 118.E.V 118.Y.V	2.0 1.5 1.75 0.8 0.0 2.0 1.5 0.8	kaθi+jʌũ	0	41	Ass:41
56139	53_ass	Ass	SGALITERARY	SGA_LITERARY	˧ ka ˥˦ θē = yå	ka˧yå=θē˥˦	k ʌ ³ + j ɔ + θ eː ⁵⁴	sgaw1245	1862	17.9872	97.7126		1 7 8 9 6 7 9 3 7 8	AXT_AX_AXT	KE6_JU_DE3	129	129.K.C 129.E.V 129.6.T 129._._ 129.J.C 129.U.V 129._._ 129.D.C 129.E.V 129.3.T	1.6 3.0 1.0 0.0 1.6 3.0 0.0 1.6 3.0 1.0	kʌ³+jɔ+θeː⁵⁴	0	44	Ass:44
56140	53_ass	Ass	SGASPOKEN	SGA_SPOKEN	k^àθi là	k^àθi là	k a θ i + l a	sgaw1245	1862	17.9872	97.7126		1 7 3 7 9 5 7	AXBZ_AX	KADI_LA	130	130.K.C 130.A.V 130.D.C 130.I.V 130._._ 130.L.C 130.A.V	2.0 1.5 1.75 0.8 0.0 2.0 1.5	kaθi+la	0	41	Ass:41
56141	53_ass	Ass	SGASPOKEN	SGA_SPOKEN	là	là	l a	sgaw1245	1862	17.9872	97.7126		5 7	AX	LA	130	130.L.C 130.A.V	2.0 1.5	la	0	31	Ass:31
56142	53_ass	Ass	BWE	BWE	θri	θri	θ r i	bwek1238	1862	18.9796	96.9936		3 5 7	ACX	DRI	22	22.D.C 22.R.C 22.I.V	2.0 1.5 1.5	θri	0	35	Ass:35
56143	53_ass	Ass	WEWAW	WEWAW	k^àθe	k^àθe	k a θ e	wewa1238	1862	19.020577	96.540526		1 7 3 7	AXBZ	KADE	157	157.K.C 157.A.V 157.D.C 157.E.V	2.0 1.5 1.75 0.8	kaθe	0	41	Ass:41
56144	53_ass	Ass	KARENBYU	KARENBYU	là	là	l a	geba1237	1862	19.4991	96.9492		5 7	AX	LA	58	58.L.C 58.A.V	2.0 1.5	la	0	31	Ass:31
56145	53_ass	Ass	KARENNI	KARENNI	myà å lyà	myà å lyà	m j a + ɔ + l j a	east2342	1862	19.8939	98.3359		4 6 7 9 7 9 5 6 7	ACX_X_ACX	MJA_U_LJA	59	59.M.C 59.J.C 59.A.V 59._._ 59.U.V 59._._ 59.L.C 59.J.C 59.A.V	2.0 1.5 1.5 0.0 1.5 0.0 2.0 1.5 1.5	mja+ɔ+lja	0	39	Ass:39
56146	53_ass	Ass	GHEKO	GHEKO	myä	myä	m j ɛ	geko1235	1862	19.6741	96.5308		4 6 7	ACX	MJE	43	43.M.C 43.J.C 43.E.V	2.0 1.5 1.5	mjɛ	0	34	Ass:34
56147	53_ass	Ass	PADAUNG	PADAUNG	myä	myä	m j ɛ	kaya1315	1862	19.5183	97.4138		4 6 7	ACX	MJE	110	110.M.C 110.J.C 110.E.V	2.0 1.5 1.5	mjɛ	0	34	Ass:34
56148	53_ass	Ass	YEINBA	YEINBA	θüᵏ	θüᵏ	θ y k̚	yinb1236	1862	19.0383	97.2134		3 7 1	AXN	DYK	161	161.D.C 161.Y.V 161.K.c	2.0 1.5 0.8	θyk̚	0	46	Ass:46
56149	53_ass	Ass	MOPWABILICHI	MOPWA_BILICHI	k^àθi là	k^àθi là	k a θ i + l a	bili1249	1862				1 7 3 7 9 5 7	AXBZ_AX	KADI_LA	100	100.K.C 100.A.V 100.D.C 100.I.V 100._._ 100.L.C 100.A.V	2.0 1.5 1.75 0.8 0.0 2.0 1.5	kaθi+la	0	41	Ass:41
56150	53_ass	Ass	MOPWADERMUHA	MOPWA_DERMUHA	l^àɣo là	l^àɣo là	l a ɣ o + l a	derm1238	1862				5 7 3 7 9 5 7	AXBZ_AX	LAGU_LA	101	101.L.C 101.A.V 101.G.C 101.U.V 101._._ 101.L.C 101.A.V	2.0 1.5 1.75 0.8 0.0 2.0 1.5	laɣo+la	0	42	Ass:42
56155	53_ass	Ass	MANCHATIORPATNI	MANCHATI_OR_PATNI	kārā	kārā	k ʌː r ʌː	karb1241	1862	25.7317	93.0462		1 7 5 7	AXBZ	KERE	88	88.K.C 88.E.V 88.R.C 88.E.V	2.0 1.5 1.75 0.8	kʌːrʌː	0	36	Ass:36
56156	53_ass	Ass	CHAMBALAHULI	CHAMBA_LAHULI	kār	kār	k ʌː r	cham1308	1862				1 7 5	AXN	KER	25	25.K.C 25.E.V 25.R.c	2.0 1.5 0.8	kʌːr	0	36	Ass:36
56157	53_ass	Ass	KANASHI	KANASHI	gad’a (Aryan)	gad’a	g ʌ d̪ʰ ʌ	kana1283	1862	32.2843	77.1553		1 7 1 7	AXBZ	KETE	56	56.K.C 56.E.V 56.T.C 56.E.V	2.0 1.5 1.75 0.8	gʌd̪ʰʌ	0	37	Ass:37
56158	53_ass	Ass	KANAURI	KANAURI	pōṯs̱	pōṯs̱	p oː ts	kinn1249	1862	31.3688	78.3148		1 7 2	AXN	PUC	57	57.P.C 57.U.V 57.C.c	2.0 1.5 0.8	poːts	0	38	Ass:38
56159	53_ass	Ass	RANGKAS	RANGKAS	gadā (Aryan)	gadā	g ʌ d̪ ʌː	rang1266	1862	29.2278	80.0845		1 7 1 7	AXBZ	KETE	121	121.K.C 121.E.V 121.T.C 121.E.V	2.0 1.5 1.75 0.8	gʌd̪ʌː	0	37	Ass:37
56160	53_ass	Ass	DHIMAL	DHIMAL	gàd’à (Aryan)	gàd’à	g a d̪ʰ a	dhim1246	1862	26.6283	88.3798		1 7 1 7	AXBZ	KATA	37	37.K.C 37.A.V 37.T.C 37.A.V	2.0 1.5 1.75 0.8	gad̪ʰa	0	37	Ass:37
56161	53_ass	Ass	THAMI	THAMI	gad’ā (Aryan)	gad’ā	g ʌ d̪ʰ ʌː	than1259	1862	28.7554	85.7657		1 7 1 7	AXBZ	KETE	149	149.K.C 149.E.V 149.T.C 149.E.V	2.0 1.5 1.75 0.8	gʌd̪ʰʌː	0	37	Ass:37
56162	53_ass	Ass	LIMBU	LIMBU	gad’ā (Aryan)	gad’ā	g ʌ d̪ʰ ʌː	limb1266	1862	27.2703	87.8859		1 7 1 7	AXBZ	KETE	79	79.K.C 79.E.V 79.T.C 79.E.V	2.0 1.5 1.75 0.8	gʌd̪ʰʌː	0	37	Ass:37
56163	53_ass	Ass	YAKHA	YAKHA	gad’āhā (Aryan)	gad’āhā	g ʌ d̪ʰ ʌː h ʌː	yakk1236	1862	27.3714	87.9306		1 7 1 7 3 7	AXBYBZ	KETEHE	159	159.K.C 159.E.V 159.T.C 159.E.V 159.H.C 159.E.V	2.0 1.5 1.75 1.3 1.75 0.8	gʌd̪ʰʌːhʌː	0	37	Ass:37
56164	53_ass	Ass	KHAMBU	KHAMBU	gad’aha (Aryan)	gad’aha	g ʌ d̪ʰ ʌ h ʌ	kham1288	1862				1 7 1 7 3 7	AXBYBZ	KETEHE	62	62.K.C 62.E.V 62.T.C 62.E.V 62.H.C 62.E.V	2.0 1.5 1.75 1.3 1.75 0.8	gʌd̪ʰʌhʌ	0	37	Ass:37
56165	53_ass	Ass	RAIORJIMDAR	RAI_OR_JIMDAR	gad’ā (Aryan)	gad’ā	g ʌ d̪ʰ ʌː	athp1241	1862	26.8794	87.3296		1 7 1 7	AXBZ	KETE	120	120.K.C 120.E.V 120.T.C 120.E.V	2.0 1.5 1.75 0.8	gʌd̪ʰʌː	0	37	Ass:37
56166	53_ass	Ass	GURUNG	GURUNG	ad’ā (? Aryan)	ad’ā	ʌ d̪ʰ ʌː	east2345	1862	28.4368	84.58145		7 1 7	XBZ	ETE	44	44.E.V 44.T.C 44.E.V	1.5 1.75 0.8	ʌd̪ʰʌː	0	37	Ass:37
56167	53_ass	Ass	MURMI	MURMI	gad’ā (Aryan)	gad’ā	g ʌ d̪ʰ ʌː	west2415	1862	28.0239	85.0563		1 7 1 7	AXBZ	KETE	105	105.K.C 105.E.V 105.T.C 105.E.V	2.0 1.5 1.75 0.8	gʌd̪ʰʌː	0	37	Ass:37
56168	53_ass	Ass	SUNWAR	SUNWAR	gād’ā (Aryan)	gād’ā	g ʌː d̪ʰ ʌː	sunw1242	1862	27.5201	86.2476		1 7 1 7	AXBZ	KETE	138	138.K.C 138.E.V 138.T.C 138.E.V	2.0 1.5 1.75 0.8	gʌːd̪ʰʌː	0	37	Ass:37
56169	53_ass	Ass	MAGARI	MAGARI	gad’ā (Aryan)	gad’ā	g ʌ d̪ʰ ʌː	west2418	1862	28.2462	83.511		1 7 1 7	AXBZ	KETE	86	86.K.C 86.E.V 86.T.C 86.E.V	2.0 1.5 1.75 0.8	gʌd̪ʰʌː	0	37	Ass:37
56170	53_ass	Ass	NEWARI	NEWARI	gaḍ’ā (Aryan)	gaḍ’ā	g ʌ ɖʰ ʌː	newa1246	1862	27.2614	84.9577		1 7 1 7	AXBZ	KETE	108	108.K.C 108.E.V 108.T.C 108.E.V	2.0 1.5 1.75 0.8	gʌɖʰʌː	0	37	Ass:37
56171	53_ass	Ass	PADIPAHRIORPAHI	PADI_PAHRI_OR_PAHI	gad’a (Aryan)	gad’a	g ʌ d̪ʰ ʌ	newa1246	1862	27.2614	84.9577		1 7 1 7	AXBZ	KETE	111	111.K.C 111.E.V 111.T.C 111.E.V	2.0 1.5 1.75 0.8	gʌd̪ʰʌ	0	37	Ass:37
56172	53_ass	Ass	RONGORLEPCHA	RONG_OR_LEPCHA	póṅ-bū	póṅ-bū	p o ŋ + b uː	lepc1244	1862	27.0869	88.5726		1 7 4 9 1 7	AXN_AX	PUN_PY	124	124.P.C 124.U.V 124.N.c 124._._ 124.P.C 124.Y.V	2.0 1.5 0.8 0.0 2.0 1.5	poŋ+buː	0	32	Ass:32
56173	53_ass	Ass	TOTO	TOTO	pāṅ-bū	pāṅ-bū	p ʌː ŋ + b uː	toto1302	1862	26.67	88.975		1 7 4 9 1 7	AXN_AX	PEN_PY	154	154.P.C 154.E.V 154.N.c 154._._ 154.P.C 154.Y.V	2.0 1.5 0.8 0.0 2.0 1.5	pʌːŋ+buː	0	32	Ass:32
56175	53_ass	Ass	LOLONI	LOLO_NI	˧ a ˦˨ šla ˨˦ la ˦ mᵘ	a˧šla˦˨la˨˦mᵘ˦	ʌ ³ + ʃ l ʌ ⁴² + l ʌ ²⁴ + m ŭ ⁴	axiy1235	1862	24.6009	103.713		7 8 9 3 5 7 8 9 5 7 8 9 4 7 8	XT_ACXT_AXT_AXT	E6_SLE3_LE2_MY6	83	83.E.V 83.6.T 83._._ 83.S.C 83.L.C 83.E.V 83.3.T 83._._ 83.L.C 83.E.V 83.2.T 83._._ 83.M.C 83.Y.V 83.6.T	3.0 1.0 0.0 1.6 1.2 3.0 1.0 0.0 1.6 3.0 1.0 0.0 1.6 3.0 1.0	ʌ³+ʃlʌ⁴²+lʌ²⁴+mŭ⁴	0	40	Ass:40
56177	53_ass	Ass	AKAKA	A_KA_KA	lå	lå	l ɔ	akha1245	1862	21.2309	100.964		5 7	AX	LU	3	3.L.C 3.U.V	2.0 1.5	lɔ	0	31	Ass:31
56178	53_ass	Ass	MOSHO	MO_SHO	ten ža	ten ža	t̪ e n̪ + ʒ ʌ	lahu1253	1862	21.2701	100.214		1 7 4 9 3 7	AXN_AX	TEN_SE	103	103.T.C 103.E.V 103.N.c 103._._ 103.S.C 103.E.V	2.0 1.5 0.8 0.0 2.0 1.5	t̪en̪+ʒʌ	0	43	Ass:43
56179	53_ass	Ass	LAHU	LAHU	lå	lå	l ɔ	lahu1253	1862	21.2701	100.214		5 7	AX	LU	73	73.L.C 73.U.V	2.0 1.5	lɔ	0	31	Ass:31
56180	53_ass	Ass	BHOTIATIBETANWRITTEN	BHOTIA_TIBETAN_WRITTEN	boṅ-bu	boṅ-bu	b o ŋ + b u	sikk1242	1862	27.85795	88.59153		1 7 4 9 1 7	AXN_AX	PUN_PY	17	17.P.C 17.U.V 17.N.c 17._._ 17.P.C 17.Y.V	2.0 1.5 0.8 0.0 2.0 1.5	boŋ+bu	0	32	Ass:32
56181	53_ass	Ass	BHOTIATIBETANSPOKEN	BHOTIA_TIBETAN_SPOKEN	poṅ-g’u	poṅ-g’u	p o ŋ + gʰ u	sikk1242	1862	27.85795	88.59153		1 7 4 9 1 7	AXN_AX	PUN_KY	16	16.P.C 16.U.V 16.N.c 16._._ 16.K.C 16.Y.V	2.0 1.5 0.8 0.0 2.0 1.5	poŋ+gʰu	0	32	Ass:32
56182	53_ass	Ass	BALTI	BALTI	boṅ-bu	boṅ-bu	b o ŋ + b u	balt1258	1862	34.4491	77.2859		1 7 4 9 1 7	AXN_AX	PUN_PY	12	12.P.C 12.U.V 12.N.c 12._._ 12.P.C 12.Y.V	2.0 1.5 0.8 0.0 2.0 1.5	boŋ+bu	0	32	Ass:32
56183	53_ass	Ass	BHOTIAOFPURIK	BHOTIA_OF_PURIK	boṅ-bū	boṅ-bū	b o ŋ + b uː	puri1258	1862	34.3386	76.0127		1 7 4 9 1 7	AXN_AX	PUN_PY	15	15.P.C 15.U.V 15.N.c 15._._ 15.P.C 15.Y.V	2.0 1.5 0.8 0.0 2.0 1.5	boŋ+buː	0	32	Ass:32
56184	53_ass	Ass	LADAKHI	LADAKHI	boṅ-ṅu	boṅ-ṅu	b o ŋ + ŋ u	lada1244	1862	33.468	80.6013		1 7 4 9 4 7	AXN_AX	PUN_NY	71	71.P.C 71.U.V 71.N.c 71._._ 71.N.C 71.Y.V	2.0 1.5 0.8 0.0 2.0 1.5	boŋ+ŋu	0	32	Ass:32
56185	53_ass	Ass	LADAKHIOFSPITI	LADAKHI_OF_SPITI	bum-bu	bum-bu	b u m + b u	spit1240	1862	32.526	77.833		1 7 4 9 1 7	AXN_AX	PYM_PY	72	72.P.C 72.Y.V 72.M.c 72._._ 72.P.C 72.Y.V	2.0 1.5 0.8 0.0 2.0 1.5	bum+bu	0	32	Ass:32
56186	53_ass	Ass	KAGATE	KAGATE	puṅ-gu	puṅ-gu	p u ŋ + g u	kaga1252	1862	27.4492	86.1675		1 7 4 9 1 7	AXN_AX	PYN_KY	55	55.P.C 55.Y.V 55.N.c 55._._ 55.K.C 55.Y.V	2.0 1.5 0.8 0.0 2.0 1.5	puŋ+gu	0	32	Ass:32
56187	53_ass	Ass	SHARPA	SHARPA	puṅ-bu	puṅ-bu	p u ŋ + b u	sher1255	1862	27.674	86.9994		1 7 4 9 1 7	AXN_AX	PYN_PY	131	131.P.C 131.Y.V 131.N.c 131._._ 131.P.C 131.Y.V	2.0 1.5 0.8 0.0 2.0 1.5	puŋ+bu	0	32	Ass:32
56188	53_ass	Ass	DANJONGKA	DANJONGKA	boṅ-gu	boṅ-gu	b o ŋ + g u	sikk1242	1862	27.85795	88.59153		1 7 4 9 1 7	AXN_AX	PUN_KY	34	34.P.C 34.U.V 34.N.c 34._._ 34.K.C 34.Y.V	2.0 1.5 0.8 0.0 2.0 1.5	boŋ+gu	0	32	Ass:32
56189	53_ass	Ass	HLOKE	HLOKE	bom	bom	b o m	lowa1242	1862	29.0324	83.8959		1 7 4	AXN	PUM	49	49.P.C 49.U.V 49.M.c	2.0 1.5 0.8	bom	0	32	Ass:32
56190	53_ass	Ass	BODOORBARA	BODO_OR_BARA	gambǒ-gǒrai	gambǒ-gǒrai	g ʌ m b ɒ + g ɒ r ai	bodo1269	1862	26.1	92.0		1 7 4 1 7 9 1 7 5 7	AXMBZ_AXBZ	KEMPO_KORA	18	18.K.C 18.E.V 18.M.c 18.P.C 18.O.V 18._._ 18.K.C 18.O.V 18.R.C 18.A.V	2.0 1.5 1.1 1.75 0.8 0.0 2.0 1.5 1.75 0.8	gʌmbɒ+gɒrai	0	33	Ass:33
56191	53_ass	Ass	TANGKHUL	TANGKHUL	si-gui ka-t’ā	si-gui ka-t’ā	s i + g u i + k ʌ + t̪ʰ ʌː	ukhr1238	1862				3 7 9 1 7 7 9 1 7 9 1 7	AX_AXZ_AX_AX	SI_KYI_KE_TE	142	142.S.C 142.I.V 142._._ 142.K.C 142.Y.V 142.I.V 142._._ 142.K.C 142.E.V 142._._ 142.T.C 142.E.V	2.0 1.5 0.0 2.0 1.5 0.8 0.0 2.0 1.5 0.0 2.0 1.5	si+gui+kʌ+t̪ʰʌː	0	45	Ass:45
56193	53_ass	Ass	MEITHEI	MEITHEI	gād’ā (Aryan)	gād’ā	g ʌː d̪ʰ ʌː	mani1292	1862	24.4409	93.3426		1 7 1 7	AXBZ	KETE	95	95.K.C 95.E.V 95.T.C 95.E.V	2.0 1.5 1.75 0.8	gʌːd̪ʰʌː	0	37	Ass:37
56194	53_ass	Ass	THADO	THADO	gād’ā (Aryan)	gād’ā	g ʌː d̪ʰ ʌː	thad1238	1862	24.096	93.722		1 7 1 7	AXBZ	KETE	148	148.K.C 148.E.V 148.T.C 148.E.V	2.0 1.5 1.75 0.8	gʌːd̪ʰʌː	0	37	Ass:37
56195	53_ass	Ass	BURMESEWRITTEN	BURMESE_WRITTEN	˨˩ mrañ	mrañ˨˩	m r ʌ ɲ ²¹	nucl1310	1862	20.7926	93.9665		4 5 7 4 8	ACXLT	MREN3	21	21.M.C 21.R.C 21.E.V 21.N.c 21.3.T	1.6 1.2 3.0 1.1 1.0	mrʌɲ²¹	0	34	Ass:34
56196	53_ass	Ass	BURMESESPOKEN	BURMESE_SPOKEN	˨˩ myi	myi˨˩	m j i ²¹	nucl1310	1862	20.7926	93.9665		4 6 7 8	ACXT	MJI3	20	20.M.C 20.J.C 20.I.V 20.3.T	1.6 1.2 3.0 1.0	mji²¹	0	34	Ass:34
56197	53_ass	Ass	TAVOYAN	TAVOYAN	myä	myä	m j ɛ	tavo1242	1862	14.1078	98.194		4 6 7	ACX	MJE	146	146.M.C 146.J.C 146.E.V	2.0 1.5 1.5	mjɛ	0	34	Ass:34
51854	37_back	Back	MANDARIN	MANDARIN	˦˨ pä	pä˦˨	p ɛ ⁴²	mand1415	1291	40.0209	116.228		1 7 8	AXT	PE3	89	89.P.C 89.E.V 89.3.T	1.6 3.0 1.0	pɛ⁴²	0	61	Back:61
51855	37_back	Back	MANDARIN	MANDARIN	˦ pä	pä˦	p ɛ ⁴	mand1415	1291	40.0209	116.228		1 7 8	AXT	PE6	89	89.P.C 89.E.V 89.6.T	1.6 3.0 1.0	pɛ⁴	0	61	Back:61
51856	37_back	Back	CANTONESE	CANTONESE	˥˦ pūi	pūi˥˦	p uː i ⁵⁴	cant1236	1291				1 7 7 8	AXYT	PYI3	23	23.P.C 23.Y.V 23.I.V 23.3.T	1.6 3.0 3.0 1.0	puːi⁵⁴	0	61	Back:61
51865	37_back	Back	PWOLITERARY	PWO_LITERARY	˨ k’lōṅ	k’lōṅ˨	kʰ l oː ŋ ²	phra1235	1291	18.0048	99.6382		1 5 7 4 8	ACXLT	KLUN6	117	117.K.C 117.L.C 117.U.V 117.N.c 117.6.T	1.6 1.2 3.0 1.1 1.0	kʰloːŋ²	0	53	Back:53
51866	37_back	Back	PWOBASSEIN	PWO_BASSEIN	kluṅ ku	kluṅ ku	k l u ŋ + k u	pwow1235	1291	17.3622	97.7044		1 5 7 4 9 1 7	ACXN_AX	KLYN_KY	116	116.K.C 116.L.C 116.Y.V 116.N.c 116._._ 116.K.C 116.Y.V	2.0 1.5 1.5 0.8 0.0 2.0 1.5	kluŋ+ku	0	69	Back:69
51867	37_back	Back	PWOMAULMEIN	PWO_MAULMEIN	kluṅ ku	kluṅ ku	k l u ŋ + k u	pwoe1235	1291	15.1915	98.7355		1 5 7 4 9 1 7	ACXN_AX	KLYN_KY	118	118.K.C 118.L.C 118.Y.V 118.N.c 118._._ 118.K.C 118.Y.V	2.0 1.5 1.5 0.8 0.0 2.0 1.5	kluŋ+ku	0	69	Back:69
51868	37_back	Back	TAUNGTHU	TAUNGTHU	ṅà	ṅà	ŋ a	paok1235	1291	20.211	97.5969		4 7	AX	NA	144	144.N.C 144.A.V	2.0 1.5	ŋa	0	49	Back:49
51869	37_back	Back	SGALITERARY	SGA_LITERARY	˧ klö	klö˧	k l ø ³	sgaw1245	1291	17.9872	97.7126		1 5 7 8	ACXT	KLU6	129	129.K.C 129.L.C 129.U.V 129.6.T	1.6 1.2 3.0 1.0	klø³	0	53	Back:53
51870	37_back	Back	SGASPOKEN	SGA_SPOKEN	b^àlo	b^àlo	b a l o	sgaw1245	1291	17.9872	97.7126		1 7 5 7	AXBZ	PALU	130	130.P.C 130.A.V 130.L.C 130.U.V	2.0 1.5 1.75 0.8	balo	0	88	Back:88
51871	37_back	Back	BWE	BWE	sàmu	sàmu	s a m u	bwek1238	1291	18.9796	96.9936		3 7 4 7	AXBZ	SAMY	22	22.S.C 22.A.V 22.M.C 22.Y.V	2.0 1.5 1.75 0.8	samu	0	60	Back:60
51872	37_back	Back	WEWAW	WEWAW	^àꭓe sà hwi	^àꭓe sà hwi	a x e + s a + h w i	wewa1238	1291	19.020577	96.540526		7 3 7 9 3 7 9 3 6 7	XBZ_AX_ACX	AGE_SA_HWI	157	157.A.V 157.G.C 157.E.V 157._._ 157.S.C 157.A.V 157._._ 157.H.C 157.W.C 157.I.V	1.5 1.75 0.8 0.0 2.0 1.5 0.0 2.0 1.5 1.5	axe+sa+hwi	0	90	Back:90
51873	37_back	Back	KARENBYU	KARENBYU	go klo	go klo	g o + k l o	geba1237	1291	19.4991	96.9492		1 7 9 1 5 7	AX_ACX	KU_KLU	58	58.K.C 58.U.V 58._._ 58.K.C 58.L.C 58.U.V	2.0 1.5 0.0 2.0 1.5 1.5	go+klo	0	72	Back:72
51874	37_back	Back	KARENNI	KARENNI	ñà	ñà	ɲ a	east2342	1291	19.8939	98.3359		4 7	AX	NA	59	59.N.C 59.A.V	2.0 1.5	ɲa	0	49	Back:49
51875	37_back	Back	GHEKO	GHEKO	k^àbà ku	k^àbà ku	k a b a + k u	geko1235	1291	19.6741	96.5308		1 7 1 7 9 1 7	AXBZ_AX	KAPA_KY	43	43.K.C 43.A.V 43.P.C 43.A.V 43._._ 43.K.C 43.Y.V	2.0 1.5 1.75 0.8 0.0 2.0 1.5	kaba+ku	0	69	Back:69
51876	37_back	Back	PADAUNG	PADAUNG	kàṅ ko	kàṅ ko	k a ŋ + k o	kaya1315	1291	19.5183	97.4138		1 7 4 9 1 7	AXN_AX	KAN_KU	110	110.K.C 110.A.V 110.N.c 110._._ 110.K.C 110.U.V	2.0 1.5 0.8 0.0 2.0 1.5	kaŋ+ko	0	69	Back:69
51877	37_back	Back	YEINBA	YEINBA	kuṅ ko ku	kuṅ ko ku	k u ŋ + k o + k u	yinb1236	1291	19.0383	97.2134		1 7 4 9 1 7 9 1 7	AXN_AX_AX	KYN_KU_KY	161	161.K.C 161.Y.V 161.N.c 161._._ 161.K.C 161.U.V 161._._ 161.K.C 161.Y.V	2.0 1.5 0.8 0.0 2.0 1.5 0.0 2.0 1.5	kuŋ+ko+ku	0	69	Back:69
51878	37_back	Back	MOPWABILICHI	MOPWA_BILICHI	klö	klö	k l ø	bili1249	1291				1 5 7	ACX	KLU	100	100.K.C 100.L.C 100.U.V	2.0 1.5 1.5	klø	0	53	Back:53
51879	37_back	Back	MOPWADERMUHA	MOPWA_DERMUHA	à hlö	à hlö	a + h l ø	derm1238	1291				7 9 3 5 7	X_ACX	A_HLU	101	101.A.V 101._._ 101.H.C 101.L.C 101.U.V	1.5 0.0 2.0 1.5 1.5	a+hlø	0	82	Back:82
51886	37_back	Back	MANCHATIORPATNI	MANCHATI_OR_PATNI	t’āk’ā	t’āk’ā	t̪ʰ ʌː kʰ ʌː	karb1241	1291	25.7317	93.0462		1 7 1 7	AXBZ	TEKE	88	88.T.C 88.E.V 88.K.C 88.E.V	2.0 1.5 1.75 0.8	t̪ʰʌːkʰʌː	0	63	Back:63
51887	37_back	Back	CHAMBALAHULI	CHAMBA_LAHULI	t’āk’	t’āk’	t̪ʰ ʌː kʰ	cham1308	1291				1 7 1	AXN	TEK	25	25.T.C 25.E.V 25.K.c	2.0 1.5 0.8	t̪ʰʌːkʰ	0	63	Back:63
51888	37_back	Back	KANASHI	KANASHI	piṣṭīṅ	piṣṭīṅ	p i ʂ ʈ iː ŋ	kana1283	1291	32.2843	77.1553		1 7 3 1 7 4	AXMBYN	PISTIN	56	56.P.C 56.I.V 56.S.c 56.T.C 56.I.V 56.N.c	2.0 1.5 1.1 1.75 1.3 0.8	piʂʈiːŋ	0	48	Back:48
51889	37_back	Back	KANAURI	KANAURI	piṣṭiṅ	piṣṭiṅ	p i ʂ ʈ i ŋ	kinn1249	1291	31.3688	78.3148		1 7 3 1 7 4	AXMBYN	PISTIN	57	57.P.C 57.I.V 57.S.c 57.T.C 57.I.V 57.N.c	2.0 1.5 1.1 1.75 1.3 0.8	piʂʈiŋ	0	48	Back:48
51890	37_back	Back	RANGKAS	RANGKAS	luṅ	luṅ	l u ŋ	rang1266	1291	29.2278	80.0845		5 7 4	AXN	LYN	121	121.L.C 121.Y.V 121.N.c	2.0 1.5 0.8	luŋ	0	79	Back:79
51891	37_back	Back	DHIMAL	DHIMAL	gån-di	gån-di	g ɔ n̪ + d̪ i	dhim1246	1291	26.6283	88.3798		1 7 4 9 1 7	AXN_AX	KUN_TI	37	37.K.C 37.U.V 37.N.c 37._._ 37.T.C 37.I.V	2.0 1.5 0.8 0.0 2.0 1.5	gɔn̪+d̪i	0	47	Back:47
51892	37_back	Back	THAMI	THAMI	lu-ku-šā	lu-ku-šā	l u + k u + ʃ ʌː	than1259	1291	28.7554	85.7657		5 7 9 1 7 9 3 7	AX_AX_AX	LY_KY_SE	149	149.L.C 149.Y.V 149._._ 149.K.C 149.Y.V 149._._ 149.S.C 149.E.V	2.0 1.5 0.0 2.0 1.5 0.0 2.0 1.5	lu+ku+ʃʌː	0	69	Back:69
51893	37_back	Back	LIMBU	LIMBU	ēg	ēg	eː g	limb1266	1291	27.2703	87.8859		7 1	XN	EK	79	79.E.V 79.K.c	1.5 0.8	eːg	0	63	Back:63
51894	37_back	Back	YAKHA	YAKHA	mis-siṅ	mis-siṅ	m i s + s i ŋ	yakk1236	1291	27.3714	87.9306		4 7 3 9 3 7 4	AXN_AXN	MIS_SIN	159	159.M.C 159.I.V 159.S.c 159._._ 159.S.C 159.I.V 159.N.c	2.0 1.5 0.8 0.0 2.0 1.5 0.8	mis+siŋ	0	91	Back:91
51895	37_back	Back	KHAMBU	KHAMBU	do-si	do-si	d̪ o + s i	kham1288	1291				1 7 9 3 7	AX_AX	TU_SI	62	62.T.C 62.U.V 62._._ 62.S.C 62.I.V	2.0 1.5 0.0 2.0 1.5	d̪o+si	0	59	Back:59
51896	37_back	Back	BAHING	BAHING	chiṅ	chiṅ	tʃ i ŋ	bahi1252	1291	27.3323	86.3949		1 7 4	AXN	TIN	10	10.T.C 10.I.V 10.N.c	2.0 1.5 0.8	tʃiŋ	0	48	Back:48
51897	37_back	Back	RAIORJIMDAR	RAI_OR_JIMDAR	ch’um-ru	ch’um-ru	tʃʰ u m + r u	athp1241	1291	26.8794	87.3296		1 7 4 9 5 7	AXN_AX	TYM_RY	120	120.T.C 120.Y.V 120.M.c 120._._ 120.R.C 120.Y.V	2.0 1.5 0.8 0.0 2.0 1.5	tʃʰum+ru	0	59	Back:59
51898	37_back	Back	VAYUORHAYU	VAYU_OR_HAYU	sē̃-ti	sē̃-ti	s ẽː + t̪ i	wayu1241	1291	27.3047	86.1227		3 7 9 1 7	AX_AX	SE_TI	155	155.S.C 155.E.V 155._._ 155.T.C 155.I.V	2.0 1.5 0.0 2.0 1.5	sẽː+t̪i	0	89	Back:89
51899	37_back	Back	GURUNG	GURUNG	g’o	g’o	gʰ o	east2345	1291	28.4368	84.58145		1 7	AX	KU	44	44.K.C 44.U.V	2.0 1.5	gʰo	0	53	Back:53
51900	37_back	Back	MURMI	MURMI	ch’ig-mā	ch’ig-mā	tʃʰ i g + m ʌː	west2415	1291	28.0239	85.0563		1 7 1 9 4 7	AXN_AX	TIK_ME	105	105.T.C 105.I.V 105.K.c 105._._ 105.M.C 105.E.V	2.0 1.5 0.8 0.0 2.0 1.5	tʃʰig+mʌː	0	63	Back:63
51901	37_back	Back	SUNWAR	SUNWAR	no-le	no-le	n̪ o + l e	sunw1242	1291	27.5201	86.2476		4 7 9 5 7	AX_AX	NU_LE	138	138.N.C 138.U.V 138._._ 138.L.C 138.E.V	2.0 1.5 0.0 2.0 1.5	n̪o+le	0	49	Back:49
51902	37_back	Back	MAGARI	MAGARI	mi-chār-di	mi-chār-di	m i + tʃ ʌː r + d̪ i	west2418	1291	28.2462	83.511		4 7 9 1 7 5 9 1 7	AX_AXN_AX	MI_TER_TI	86	86.M.C 86.I.V 86._._ 86.T.C 86.E.V 86.R.c 86._._ 86.T.C 86.I.V	2.0 1.5 0.0 2.0 1.5 0.8 0.0 2.0 1.5	mi+tʃʌːr+d̪i	0	78	Back:78
51903	37_back	Back	NEWARI	NEWARI	jaṇḍ’u	jaṇḍ’u	dʒ ʌ ɳ ɖʰ u	newa1246	1291	27.2614	84.9577		1 7 4 1 7	AXMBZ	TENTY	108	108.T.C 108.E.V 108.N.c 108.T.C 108.Y.V	2.0 1.5 1.1 1.75 0.8	dʒʌɳɖʰu	0	83	Back:83
51904	37_back	Back	PADIPAHRIORPAHI	PADI_PAHRI_OR_PAHI	d’u-sā	d’u-sā	d̪ʰ u + s ʌː	newa1246	1291	27.2614	84.9577		1 7 9 3 7	AX_AX	TY_SE	111	111.T.C 111.Y.V 111._._ 111.S.C 111.E.V	2.0 1.5 0.0 2.0 1.5	d̪ʰu+sʌː	0	59	Back:59
51905	37_back	Back	RONGORLEPCHA	RONG_OR_LEPCHA	ta-gūm	ta-gūm	t̪ ʌ + g uː m	lepc1244	1291	27.0869	88.5726		1 7 9 1 7 4	AX_AXN	TE_KYM	124	124.T.C 124.E.V 124._._ 124.K.C 124.Y.V 124.M.c	2.0 1.5 0.0 2.0 1.5 0.8	t̪ʌ+guːm	0	56	Back:56
51906	37_back	Back	TOTO	TOTO	ju°-mā	ju°-mā	dʒ u + m ʌː	toto1302	1291	26.67	88.975		1 7 9 4 7	AX_AX	TY_ME	154	154.T.C 154.Y.V 154._._ 154.M.C 154.E.V	2.0 1.5 0.0 2.0 1.5	dʒu+mʌː	0	67	Back:67
51908	37_back	Back	ABOR	ABOR	lām-kū	lām-kū	l ʌː m + k uː	bori1243	1291	27.62812	94.3538		5 7 4 9 1 7	AXN_AX	LEM_KY	1	1.L.C 1.E.V 1.M.c 1._._ 1.K.C 1.Y.V	2.0 1.5 0.8 0.0 2.0 1.5	lʌːm+kuː	0	47	Back:47
51909	37_back	Back	MIRI	MIRI	lām-kū	lām-kū	l ʌː m + k uː	misi1242	1291	27.418	94.69		5 7 4 9 1 7	AXN_AX	LEM_KY	98	98.L.C 98.E.V 98.M.c 98._._ 98.K.C 98.Y.V	2.0 1.5 0.8 0.0 2.0 1.5	lʌːm+kuː	0	47	Back:47
51910	37_back	Back	DAFLA	DAFLA	lānk	lānk	l ʌː n̪ k	nyis1236	1291	27.278263	93.675529		5 7 4 1	AXLN	LENK	33	33.L.C 33.E.V 33.N.c 33.K.c	2.0 1.5 1.1 0.8	lʌːn̪k	0	63	Back:63
51911	37_back	Back	MISHMIDIGARU	MISHMI_DIGARU	mpliṅ	mpliṅ	m p l i ŋ	diga1241	1291	28.4993	96.8803		4 1 5 7 4	ACCYN	MPLIN	99	99.M.C 99.P.C 99.L.C 99.I.V 99.N.c	2.0 1.5 1.5 1.3 0.8	mpliŋ	0	81	Back:81
51912	37_back	Back	MIJU	MIJU	glok	glok	g l o k	miju1243	1291	28.4732	97.0444		1 5 7 1	ACXN	KLUK	96	96.K.C 96.L.C 96.U.V 96.K.c	2.0 1.5 1.5 0.8	glok	0	80	Back:80
51913	37_back	Back	SIHIA	SI_HIA	ṅo	ṅo	ŋ o	tang1334	1291	38.894904	102.246464		4 7	AX	NU	133	133.N.C 133.U.V	2.0 1.5	ŋo	0	49	Back:49
51914	37_back	Back	LOLONI	LOLO_NI	˦˨ kiä ˦˨ di	kiä˦˨di˦˨	k i ɛ ⁴² + d̪ i ⁴²	axiy1235	1291	24.6009	103.713		1 7 7 8 9 1 7 8	AXYT_AXT	KIE3_TI3	83	83.K.C 83.I.V 83.E.V 83.3.T 83._._ 83.T.C 83.I.V 83.3.T	1.6 3.0 3.0 1.0 0.0 1.6 3.0 1.0	kiɛ⁴²+d̪i⁴²	0	77	Back:77
51916	37_back	Back	AKAKA	A_KA_KA	nàkà̃	nàkà̃	n̪ a k ã	akha1245	1291	21.2309	100.964		4 7 1 7	AXBZ	NAKA	3	3.N.C 3.A.V 3.K.C 3.A.V	2.0 1.5 1.75 0.8	n̪akã	0	49	Back:49
51917	37_back	Back	LISU	LISU	˧ kà ˧ kå	kà˧kå˧	k a ³ + k ɔ ³	lisu1250	1291	26.91	98.94		1 7 8 9 1 7 8	AXT_AXT	KA6_KU6	81	81.K.C 81.A.V 81.6.T 81._._ 81.K.C 81.U.V 81.6.T	1.6 3.0 1.0 0.0 1.6 3.0 1.0	ka³+kɔ³	0	76	Back:76
51918	37_back	Back	LISHAOYAOYIN	LISHAO_YAOYIN	dzudzö	dzudzö	dz u dz ø	lisu1250	1291	26.91	98.94		2 7 2 7	AXBZ	CYCU	80	80.C.C 80.Y.V 80.C.C 80.U.V	2.0 1.5 1.75 0.8	dzudzø	0	63	Back:63
51919	37_back	Back	MOSHO	MO_SHO	gösē	gösē	g ø s eː	lahu1253	1291	21.2701	100.214		1 7 3 7	AXBZ	KUSE	103	103.K.C 103.U.V 103.S.C 103.E.V	2.0 1.5 1.75 0.8	gøseː	0	53	Back:53
51920	37_back	Back	NUNG	NUNG	rᵃgü	rᵃgü	r ă g y	nung1282	1291	27.2887	98.7333		5 7 1 7	AXBZ	RAKY	109	109.R.C 109.A.V 109.K.C 109.Y.V	2.0 1.5 1.75 0.8	răgy	0	84	Back:84
51921	37_back	Back	BHOTIATIBETANWRITTEN	BHOTIA_TIBETAN_WRITTEN	rgyab	rgyab	r gʲ ʌ b	sikk1242	1291	27.85795	88.59153		5 1 7 1	ACYN	RKEP	17	17.R.C 17.K.C 17.E.V 17.P.c	2.0 1.5 1.3 0.8	rgʲʌb	0	57	Back:57
51922	37_back	Back	BHOTIATIBETANSPOKEN	BHOTIA_TIBETAN_SPOKEN	gyap	gyap	gʲ ʌ p	sikk1242	1291	27.85795	88.59153		1 7 1	AXN	KEP	16	16.K.C 16.E.V 16.P.c	2.0 1.5 0.8	gʲʌp	0	57	Back:57
51923	37_back	Back	BALTI	BALTI	šul	šul	ʃ u l	balt1258	1291	34.4491	77.2859		3 7 5	AXN	SYL	12	12.S.C 12.Y.V 12.L.c	2.0 1.5 0.8	ʃul	0	54	Back:54
51924	37_back	Back	BHOTIAOFPURIK	BHOTIA_OF_PURIK	rgyap	rgyap	r gʲ ʌ p	puri1258	1291	34.3386	76.0127		5 1 7 1	ACYN	RKEP	15	15.R.C 15.K.C 15.E.V 15.P.c	2.0 1.5 1.3 0.8	rgʲʌp	0	57	Back:57
51925	37_back	Back	LADAKHI	LADAKHI	rgyap	rgyap	r gʲ ʌ p	lada1244	1291	33.468	80.6013		5 1 7 1	ACYN	RKEP	71	71.R.C 71.K.C 71.E.V 71.P.c	2.0 1.5 1.3 0.8	rgʲʌp	0	57	Back:57
51926	37_back	Back	LADAKHIOFSPITI	LADAKHI_OF_SPITI	gyap	gyap	gʲ ʌ p	spit1240	1291	32.526	77.833		1 7 1	AXN	KEP	72	72.K.C 72.E.V 72.P.c	2.0 1.5 0.8	gʲʌp	0	57	Back:57
51927	37_back	Back	KAGATE	KAGATE	kyap	kyap	kʲ ʌ p	kaga1252	1291	27.4492	86.1675		1 7 1	AXN	KEP	55	55.K.C 55.E.V 55.P.c	2.0 1.5 0.8	kʲʌp	0	57	Back:57
51928	37_back	Back	SHARPA	SHARPA	gyap	gyap	gʲ ʌ p	sher1255	1291	27.674	86.9994		1 7 1	AXN	KEP	131	131.K.C 131.E.V 131.P.c	2.0 1.5 0.8	gʲʌp	0	57	Back:57
51929	37_back	Back	DANJONGKA	DANJONGKA	gyap	gyap	gʲ ʌ p	sikk1242	1291	27.85795	88.59153		1 7 1	AXN	KEP	34	34.K.C 34.E.V 34.P.c	2.0 1.5 0.8	gʲʌp	0	57	Back:57
51930	37_back	Back	HLOKE	HLOKE	gep	gep	g e p	lowa1242	1291	29.0324	83.8959		1 7 1	AXN	KEP	49	49.K.C 49.E.V 49.P.c	2.0 1.5 0.8	gep	0	57	Back:57
51931	37_back	Back	BODOORBARA	BODO_OR_BARA	bi-k’uṅ	bi-k’uṅ	b i + kʰ u ŋ	bodo1269	1291	26.1	92.0		1 7 9 1 7 4	AX_AXN	PI_KYN	18	18.P.C 18.I.V 18._._ 18.K.C 18.Y.V 18.N.c	2.0 1.5 0.0 2.0 1.5 0.8	bi+kʰuŋ	0	58	Back:58
51932	37_back	Back	LALUNG	LALUNG	lāṅgal-pāt’i	lāṅgal-pāt’i	l ʌː ŋ g ʌ l + p ʌː t̪ʰ i	tiwa1253	1291	26.0667	92.2583		5 7 4 1 7 5 9 1 7 1 7	AXMBYN_AXBZ	LENKEL_PETI	75	75.L.C 75.E.V 75.N.c 75.K.C 75.E.V 75.L.c 75._._ 75.P.C 75.E.V 75.T.C 75.I.V	2.0 1.5 1.1 1.75 1.3 0.8 0.0 2.0 1.5 1.75 0.8	lʌːŋgʌl+pʌːt̪ʰi	0	75	Back:75
51933	37_back	Back	DIMASA	DIMA_SA	šī-ma	šī-ma	ʃ iː + m ʌ	dima1251	1291	25.4198	93.1806		3 7 9 4 7	AX_AX	SI_ME	38	38.S.C 38.I.V 38._._ 38.M.C 38.E.V	2.0 1.5 0.0 2.0 1.5	ʃiː+mʌ	0	67	Back:67
51934	37_back	Back	GAROACHIK	GARO_ACHIK	jāṅ-gil	jāṅ-gil	dʒ ʌː ŋ + g i l	garo1247	1291	25.2954	90.462		1 7 4 9 1 7 5	AXN_AXN	TEN_KIL	42	42.T.C 42.E.V 42.N.c 42._._ 42.K.C 42.I.V 42.L.c	2.0 1.5 0.8 0.0 2.0 1.5 0.8	dʒʌːŋ+gil	0	68	Back:68
51935	37_back	Back	KOCH	KOCH	jāṅul	jāṅul	dʒ ʌː ŋ u l	koch1250	1291	25.7962	90.2566		1 7 4 7 5	AXBYN	TENYL	66	66.T.C 66.E.V 66.N.C 66.Y.V 66.L.c	2.0 1.5 1.75 1.3 0.8	dʒʌːŋul	0	74	Back:74
51936	37_back	Back	TIPURA	TIPURA	fi-kuṅ	fi-kuṅ	f i + k u ŋ	kokb1239	1291	23.1916	91.4673		3 7 9 1 7 4	AX_AXN	BI_KYN	153	153.B.C 153.I.V 153._._ 153.K.C 153.Y.V 153.N.c	2.0 1.5 0.0 2.0 1.5 0.8	fi+kuŋ	0	58	Back:58
51937	37_back	Back	DEURICHUTIYA	DEURI_CHUTIYA	imāri	imāri	i m ʌː r i	deor1238	1291	26.86152	93.70572		7 4 7 5 7	XBYBZ	IMERI	36	36.I.V 36.M.C 36.E.V 36.R.C 36.I.V	1.5 1.75 1.3 1.75 0.8	imʌːri	0	50	Back:50
51938	37_back	Back	ANGAMI	ANGAMI	chē	chē	tʃ eː	anga1288	1291	25.6841	93.8668		1 7	AX	TE	7	7.T.C 7.E.V	2.0 1.5	tʃeː	0	48	Back:48
51939	37_back	Back	ANGAMI	ANGAMI	nā-ku	nā-ku	n̪ ʌː + k u	anga1288	1291	25.6841	93.8668		4 7 9 1 7	AX_AX	NE_KY	7	7.N.C 7.E.V 7._._ 7.K.C 7.Y.V	2.0 1.5 0.0 2.0 1.5	n̪ʌː+ku	0	47	Back:47
51940	37_back	Back	SEMA	SEMA	(a-)ki-che	ki-che	k i + tʃ e	sumi1235	1291	25.9996	94.4235		1 7 9 1 7	AX_AX	KI_TE	127	127.K.C 127.I.V 127._._ 127.T.C 127.E.V	2.0 1.5 0.0 2.0 1.5	ki+tʃe	0	73	Back:73
51941	37_back	Back	RENGMA	RENGMA	nsē	nsē	n̪ s eː	nort2725	1291	26.4492	94.5683		4 3 7	ACZ	NSE	122	122.N.C 122.S.C 122.E.V	2.0 1.5 0.8	n̪seː	0	86	Back:86
51942	37_back	Back	KEZAMA	KEZAMA	ke-chē	ke-chē	k e + tʃ eː	khez1235	1291	25.7078	94.3114		1 7 9 1 7	AX_AX	KE_TE	60	60.K.C 60.E.V 60._._ 60.T.C 60.E.V	2.0 1.5 0.0 2.0 1.5	ke+tʃeː	0	73	Back:73
51943	37_back	Back	SOPVOMA	SOPVOMA	(u-)pfē	pfē	p f eː	maon1238	1291	25.3836	94.0035		1 3 7	ACX	PBE	137	137.P.C 137.B.C 137.E.V	2.0 1.5 1.5	pfeː	0	61	Back:61
51944	37_back	Back	AO	AO	te-roṅtoṅ	te-roṅtoṅ	t̪ e + r o ŋ t̪ o ŋ	aona1235	1291	26.3241	94.3824		1 7 9 5 7 4 1 7 4	AX_AXMBYN	TE_RUNTUN	8	8.T.C 8.E.V 8._._ 8.R.C 8.U.V 8.N.c 8.T.C 8.U.V 8.N.c	2.0 1.5 0.0 2.0 1.5 1.1 1.75 1.3 0.8	t̪e+roŋt̪oŋ	0	52	Back:52
51945	37_back	Back	HLOTA	HLOTA	mānkū	mānkū	m ʌː n̪ k uː	loth1237	1291	26.01396	94.04355		4 7 4 1 7	AXMBZ	MENKY	50	50.M.C 50.E.V 50.N.c 50.K.C 50.Y.V	2.0 1.5 1.1 1.75 0.8	mʌːn̪kuː	0	70	Back:70
51946	37_back	Back	HLOTA	HLOTA	sīlāmwē	sīlāmwē	s iː l ʌː m w eː	loth1237	1291	26.01396	94.04355		3 7 5 7 4 6 7	AXBYBCZ	SILEMWE	50	50.S.C 50.I.V 50.L.C 50.E.V 50.M.C 50.W.C 50.E.V	2.0 1.5 1.75 1.3 1.75 1.5 0.8	siːlʌːmweː	0	92	Back:92
51947	37_back	Back	TENGSA	TENGSA	ta-lam	ta-lam	t̪ ʌ + l ʌ m	tase1235	1291	27.2572	96.3855		1 7 9 5 7 4	AX_AXN	TE_LEM	147	147.T.C 147.E.V 147._._ 147.L.C 147.E.V 147.M.c	2.0 1.5 0.0 2.0 1.5 0.8	t̪ʌ+lʌm	0	56	Back:56
51948	37_back	Back	THUKUMI	THUKUMI	roṅ	roṅ	r o ŋ	sang1321	1291	25.8581	94.6279		5 7 4	AXN	RUN	151	151.R.C 151.U.V 151.N.c	2.0 1.5 0.8	roŋ	0	50	Back:50
51949	37_back	Back	YACHUMI	YACHUMI	ruṅ	ruṅ	r u ŋ	yimc1240	1291	25.7675	94.8087		5 7 4	AXN	RYN	158	158.R.C 158.Y.V 158.N.c	2.0 1.5 0.8	ruŋ	0	50	Back:50
51950	37_back	Back	TABLENG	TABLENG	tok-p’ai	tok-p’ai	t̪ o k + pʰ ai	kony1248	1291	26.6823	95.0598		1 7 1 9 1 7	AXN_AX	TUK_PA	140	140.T.C 140.U.V 140.K.c 140._._ 140.P.C 140.A.V	2.0 1.5 0.8 0.0 2.0 1.5	t̪ok+pʰai	0	63	Back:63
51951	37_back	Back	TAMLU	TAMLU	tok	tok	t̪ o k	phom1236	1291	26.4715	94.7476		1 7 1	AXN	TUK	141	141.T.C 141.U.V 141.K.c	2.0 1.5 0.8	t̪ok	0	63	Back:63
51952	37_back	Back	BANPARA	BANPARA	tå-ki	tå-ki	t̪ ɔ + k i	wanc1238	1291	26.2581	94.8936		1 7 9 1 7	AX_AX	TU_KI	14	14.T.C 14.U.V 14._._ 14.K.C 14.I.V	2.0 1.5 0.0 2.0 1.5	t̪ɔ+ki	0	56	Back:56
51953	37_back	Back	NAMSANGIA	NAMSANGIA	tām	tām	t̪ ʌː m	noct1238	1291	27.152	95.3903		1 7 4	AXN	TEM	107	107.T.C 107.E.V 107.M.c	2.0 1.5 0.8	t̪ʌːm	0	47	Back:47
51954	37_back	Back	CHANG	CHANG	tāk	tāk	t̪ ʌː k	chan1313	1291	26.4336	94.9536		1 7 1	AXN	TEK	26	26.T.C 26.E.V 26.K.c	2.0 1.5 0.8	t̪ʌːk	0	63	Back:63
51955	37_back	Back	CHANG	CHANG	t’āk	t’āk	t̪ʰ ʌː k	chan1313	1291	26.4336	94.9536		1 7 1	AXN	TEK	26	26.T.C 26.E.V 26.K.c	2.0 1.5 0.8	t̪ʰʌːk	0	63	Back:63
51956	37_back	Back	EMPEO	EMPEO	mi-siṅ	mi-siṅ	m i + s i ŋ	zeme1240	1291	25.3499	93.6463		4 7 9 3 7 4	AX_AXN	MI_SIN	41	41.M.C 41.I.V 41._._ 41.S.C 41.I.V 41.N.c	2.0 1.5 0.0 2.0 1.5 0.8	mi+siŋ	0	68	Back:68
51957	37_back	Back	KABUI	KABUI	t’eṅ	t’eṅ	t̪ʰ e ŋ	rong1266	1291	25.098	93.7869		1 7 4	AXN	TEN	53	53.T.C 53.E.V 53.N.c	2.0 1.5 0.8	t̪ʰeŋ	0	48	Back:48
51958	37_back	Back	KHOIRAO	KHOIRAO	asēn	asēn	ʌ s eː n̪	than1255	1291	25.3472	93.8396		7 3 7 4	XBYN	ESEN	65	65.E.V 65.S.C 65.E.V 65.N.c	1.5 1.75 1.3 0.8	ʌseːn̪	0	48	Back:48
51959	37_back	Back	MIKIR	MIKIR	ā-nuṅ	ā-nuṅ	ʌː + n̪ u ŋ	karb1241	1291	25.7317	93.0462		7 9 4 7 4	X_AXN	E_NYN	97	97.E.V 97._._ 97.N.C 97.Y.V 97.N.c	1.5 0.0 2.0 1.5 0.8	ʌː+n̪uŋ	0	49	Back:49
51960	37_back	Back	MARAM	MARAM	ā-pau	ā-pau	ʌː + p au	mara1379	1291	25.4378	94.2205		7 9 1 7	X_AX	E_PA	92	92.E.V 92._._ 92.P.C 92.A.V	1.5 0.0 2.0 1.5	ʌː+pau	0	61	Back:61
51961	37_back	Back	KWOIRENG	KWOIRENG	chā-ṅūm	chā-ṅūm	tʃ ʌː + ŋ uː m	lian1251	1291	25.16	93.542		1 7 9 4 7 4	AX_AXN	TE_NYM	70	70.T.C 70.E.V 70._._ 70.N.C 70.Y.V 70.M.c	2.0 1.5 0.0 2.0 1.5 0.8	tʃʌː+ŋuːm	0	56	Back:56
51962	37_back	Back	KWOIRENG	KWOIRENG	tā-tiṅ	tā-tiṅ	t̪ ʌː + t̪ i ŋ	lian1251	1291	25.16	93.542		1 7 9 1 7 4	AX_AXN	TE_TIN	70	70.T.C 70.E.V 70._._ 70.T.C 70.I.V 70.N.c	2.0 1.5 0.0 2.0 1.5 0.8	t̪ʌː+t̪iŋ	0	68	Back:68
51963	37_back	Back	TANGKHUL	TANGKHUL	k’um-k’or	k’um-k’or	kʰ u m + kʰ o r	ukhr1238	1291				1 7 4 9 1 7 5	AXN_AXN	KYM_KUR	142	142.K.C 142.Y.V 142.M.c 142._._ 142.K.C 142.U.V 142.R.c	2.0 1.5 0.8 0.0 2.0 1.5 0.8	kʰum+kʰor	0	53	Back:53
51964	37_back	Back	PHADANG	PHADANG	dūk-dēü	dūk-dēü	d̪ uː k + d̪ eː y	phad1238	1291				1 7 1 9 1 7 7	AXN_AXZ	TYK_TEY	113	113.T.C 113.Y.V 113.K.c 113._._ 113.T.C 113.E.V 113.Y.V	2.0 1.5 0.8 0.0 2.0 1.5 0.8	d̪uːk+d̪eːy	0	63	Back:63
51965	37_back	Back	KHANGOI	KHANGOI	ā-nā	ā-nā	ʌː + n̪ ʌː	khan1277	1291	25.73633	94.247299		7 9 4 7	X_AX	E_NE	64	64.E.V 64._._ 64.N.C 64.E.V	1.5 0.0 2.0 1.5	ʌː+n̪ʌː	0	49	Back:49
51966	37_back	Back	MARING	MARING	nam-kal	nam-kal	n̪ ʌ m + k ʌ l	mari1416	1291	24.2854	94.0723		4 7 4 9 1 7 5	AXN_AXN	NEM_KEL	93	93.N.C 93.E.V 93.M.c 93._._ 93.K.C 93.E.V 93.L.c	2.0 1.5 0.8 0.0 2.0 1.5 0.8	n̪ʌm+kʌl	0	47	Back:47
51967	37_back	Back	CHINGPAORKACHIN	CHINGPA_OR_KACHIN	mᵃši	mᵃši	m ă ʃ i	kach1280	1291	25.4634	97.3278		4 7 3 7	AXBZ	MASI	31	31.M.C 31.A.V 31.S.C 31.I.V	2.0 1.5 1.75 0.8	măʃi	0	65	Back:65
51968	37_back	Back	CHINGPAORKACHIN	CHINGPA_OR_KACHIN	mᵃruṅ	mᵃruṅ	m ă r u ŋ	kach1280	1291	25.4634	97.3278		4 7 5 7 4	AXBYN	MARYN	31	31.M.C 31.A.V 31.R.C 31.Y.V 31.N.c	2.0 1.5 1.75 1.3 0.8	măruŋ	0	50	Back:50
51970	37_back	Back	SINGPHO	SINGPHO	siṅ-māṅ	siṅ-māṅ	s i ŋ + m ʌː ŋ	sing1264	1291	27.296	95.606		3 7 4 9 4 7 4	AXN_AXN	SIN_MEN	134	134.S.C 134.I.V 134.N.c 134._._ 134.M.C 134.E.V 134.N.c	2.0 1.5 0.8 0.0 2.0 1.5 0.8	siŋ+mʌːŋ	0	67	Back:67
51972	37_back	Back	MEITHEI	MEITHEI	nam-gan	nam-gan	n̪ ʌ m + g ʌ n̪	mani1292	1291	24.4409	93.3426		4 7 4 9 1 7 4	AXN_AXN	NEM_KEN	95	95.N.C 95.E.V 95.M.c 95._._ 95.K.C 95.E.V 95.N.c	2.0 1.5 0.8 0.0 2.0 1.5 0.8	n̪ʌm+gʌn̪	0	47	Back:47
51973	37_back	Back	THADO	THADO	tūṅ-dūn	tūṅ-dūn	t̪ uː ŋ + d̪ uː n̪	thad1238	1291	24.096	93.722		1 7 4 9 1 7 4	AXN_AXN	TYN_TYN	148	148.T.C 148.Y.V 148.N.c 148._._ 148.T.C 148.Y.V 148.N.c	2.0 1.5 0.8 0.0 2.0 1.5 0.8	t̪uːŋ+d̪uːn̪	0	68	Back:68
51974	37_back	Back	SIYIN	SIYIN	nūṅ	nūṅ	n̪ uː ŋ	siyi1240	1291	23.8192	93.6884		4 7 4	AXN	NYN	136	136.N.C 136.Y.V 136.N.c	2.0 1.5 0.8	n̪uːŋ	0	49	Back:49
51975	37_back	Back	LAI	LAI	kuṅ	kuṅ	k u ŋ	haka1240	1291	22.8735	92.8208		1 7 4	AXN	KYN	74	74.K.C 74.Y.V 74.N.c	2.0 1.5 0.8	kuŋ	0	53	Back:53
51976	37_back	Back	LUSHEI	LUSHEI	hnuṅ-zāṅ	hnuṅ-zāṅ	h n̪ u ŋ + z ʌː ŋ	lush1249	1291	22.6138	92.6247		3 4 7 4 9 3 7 4	ACXN_AXN	HNYN_SEN	85	85.H.C 85.N.C 85.Y.V 85.N.c 85._._ 85.S.C 85.E.V 85.N.c	2.0 1.5 1.5 0.8 0.0 2.0 1.5 0.8	hn̪uŋ+zʌːŋ	0	67	Back:67
51977	37_back	Back	BANJOGI	BANJOGI	kēin	kēin	k eː i n̪	zotu1235	1291	22.5298	93.29		1 7 7 4	AXYN	KEIN	13	13.K.C 13.E.V 13.I.V 13.N.c	2.0 1.5 1.3 0.8	keːin̪	0	55	Back:55
51978	37_back	Back	PANKHU	PANKHU	kā-nūṅ	kā-nūṅ	k ʌː + n̪ uː ŋ	pank1249	1291	22.6797	92.9461		1 7 9 4 7 4	AX_AXN	KE_NYN	112	112.K.C 112.E.V 112._._ 112.N.C 112.Y.V 112.N.c	2.0 1.5 0.0 2.0 1.5 0.8	kʌː+n̪uːŋ	0	49	Back:49
51979	37_back	Back	HRANGKHOL	HRANGKHOL	rūöṅ	rūöṅ	r uː ø ŋ	hran1239	1291	24.4559	93.351		5 7 7 4	AXYN	RYUN	51	51.R.C 51.Y.V 51.U.V 51.N.c	2.0 1.5 1.3 0.8	ruːøŋ	0	50	Back:50
51980	37_back	Back	HALLAM	HALLAM	rūoṅ	rūoṅ	r uː o ŋ	fala1243	1291	23.7892833333	92.3254633333		5 7 7 4	AXYN	RYUN	47	47.R.C 47.Y.V 47.U.V 47.N.c	2.0 1.5 1.3 0.8	ruːoŋ	0	50	Back:50
51981	37_back	Back	LANGRONG	LANGRONG	rūaṅ	rūaṅ	r uː ʌ ŋ	lang1312	1291				5 7 7 4	AXYN	RYEN	77	77.R.C 77.Y.V 77.E.V 77.N.c	2.0 1.5 1.3 0.8	ruːʌŋ	0	50	Back:50
51982	37_back	Back	AIMOL	AIMOL	tiṅ	tiṅ	t̪ i ŋ	aimo1244	1291	24.6437	94.3556		1 7 4	AXN	TIN	2	2.T.C 2.I.V 2.N.c	2.0 1.5 0.8	t̪iŋ	0	48	Back:48
51983	37_back	Back	CHIRU	CHIRU	karrnam	karrnam	k ʌ r r n̪ ʌ m	chir1283	1291	25.4643	94.4072		1 7 5 5 4 7 4	AXLMBYN	KERRNEM	32	32.K.C 32.E.V 32.R.c 32.R.c 32.N.C 32.E.V 32.M.c	2.0 1.5 1.1 1.1 1.75 1.3 0.8	kʌrrn̪ʌm	0	66	Back:66
51984	37_back	Back	KOLHRENG	KOLHRENG	a-tiṅ	a-tiṅ	ʌ + t̪ i ŋ	kolh1240	1291				7 9 1 7 4	X_AXN	E_TIN	67	67.E.V 67._._ 67.T.C 67.I.V 67.N.c	1.5 0.0 2.0 1.5 0.8	ʌ+t̪iŋ	0	48	Back:48
51985	37_back	Back	KOM	KOM	ka-t’ūm	ka-t’ūm	k ʌ + t̪ʰ uː m	komi1270	1291	24.8688	94.534		1 7 9 1 7 4	AX_AXN	KE_TYM	68	68.K.C 68.E.V 68._._ 68.T.C 68.Y.V 68.M.c	2.0 1.5 0.0 2.0 1.5 0.8	kʌ+t̪ʰuːm	0	47	Back:47
51986	37_back	Back	PURUM	PURUM	tiṅ	tiṅ	t̪ i ŋ	puru1266	1291	25.3887	95.0935		1 7 4	AXN	TIN	115	115.T.C 115.I.V 115.N.c	2.0 1.5 0.8	t̪iŋ	0	48	Back:48
51987	37_back	Back	ANAL	ANAL	ka-paṅ	ka-paṅ	k ʌ + p ʌ ŋ	anal1239	1291	24.0506	94.2806		1 7 9 1 7 4	AX_AXN	KE_PEN	5	5.K.C 5.E.V 5._._ 5.P.C 5.E.V 5.N.c	2.0 1.5 0.0 2.0 1.5 0.8	kʌ+pʌŋ	0	50	Back:50
51988	37_back	Back	HIROILAMGANG	HIROI_LAMGANG	a-paṅ	a-paṅ	ʌ + p ʌ ŋ	lamk1238	1291	24.1523	94.2706		7 9 1 7 4	X_AXN	E_PEN	48	48.E.V 48._._ 48.P.C 48.E.V 48.N.c	1.5 0.0 2.0 1.5 0.8	ʌ+pʌŋ	0	50	Back:50
51989	37_back	Back	TAUNGTHA	TAUNGTHA	kuṅ-ru	kuṅ-ru	k u ŋ + r u	paok1235	1291	20.211	97.5969		1 7 4 9 5 7	AXN_AX	KYN_RY	143	143.K.C 143.Y.V 143.N.c 143._._ 143.R.C 143.Y.V	2.0 1.5 0.8 0.0 2.0 1.5	kuŋ+ru	0	47	Back:47
51990	37_back	Back	CHINBON	CHINBON	à-hlaiṅ	à-hlaiṅ	a + h l ai ŋ	chin1478	1291	20.0776	94.0506		7 9 3 5 7 4	X_ACXN	A_HLAN	30	30.A.V 30._._ 30.H.C 30.L.C 30.A.V 30.N.c	1.5 0.0 2.0 1.5 1.5 0.8	a+hlaiŋ	0	64	Back:64
51991	37_back	Back	THAYETMYOCHIN	THAYETMYO_CHIN	ᵃhliṅ	ᵃhliṅ	ă h l i ŋ	thay1247	1291				7 3 5 7 4	XBCYN	AHLIN	150	150.A.V 150.H.C 150.L.C 150.I.V 150.N.c	1.5 1.75 1.5 1.3 0.8	ăhliŋ	0	64	Back:64
51992	37_back	Back	SHOORKHYANG	SHO_OR_KHYANG	a-hliṅ	a-hliṅ	ʌ + h l i ŋ	asho1236	1291	21.393	93.5069		7 9 3 5 7 4	X_ACXN	E_HLIN	132	132.E.V 132._._ 132.H.C 132.L.C 132.I.V 132.N.c	1.5 0.0 2.0 1.5 1.5 0.8	ʌ+hliŋ	0	64	Back:64
51993	37_back	Back	KHAMI	KHAMI	ṅiṅ-t’on (?)	ṅiṅ-t’on	ŋ i ŋ + t̪ʰ o n̪	kham1284	1291				4 7 4 9 1 7 4	AXN_AXN	NIN_TUN	63	63.N.C 63.I.V 63.N.c 63._._ 63.T.C 63.U.V 63.N.c	2.0 1.5 0.8 0.0 2.0 1.5 0.8	ŋiŋ+t̪ʰon̪	0	67	Back:67
51994	37_back	Back	ANDRO	ANDRO	lo-mà	lo-mà	l o + m a	kadu1254	1291				5 7 9 4 7	AX_AX	LU_MA	6	6.L.C 6.U.V 6._._ 6.M.C 6.A.V	2.0 1.5 0.0 2.0 1.5	lo+ma	0	51	Back:51
51995	37_back	Back	SENGMAI	SENGMAI	lū-bàl	lū-bàl	l uː + b a l	kadu1254	1291				5 7 9 1 7 5	AX_AXN	LY_PAL	128	128.L.C 128.Y.V 128._._ 128.P.C 128.A.V 128.L.c	2.0 1.5 0.0 2.0 1.5 0.8	luː+bal	0	87	Back:87
51996	37_back	Back	CHAIREL	CHAIREL	yà-ṅel	yà-ṅel	j a + ŋ e l	chai1254	1291	24.30438	93.866431		6 7 9 4 7 5	AX_AXN	JA_NEL	24	24.J.C 24.A.V 24._._ 24.N.C 24.E.V 24.L.c	2.0 1.5 0.0 2.0 1.5 0.8	ja+ŋel	0	62	Back:62
51997	37_back	Back	KADU	KADU	ka ˧ s’àṅ	kas’àṅ˧	k ʌ sʰ a ŋ ³	kadu1254	1291				1 7 3 7 4 8	AXBYLT	KESAN6	54	54.K.C 54.E.V 54.S.C 54.A.V 54.N.c 54.6.T	1.6 3.0 1.3 3.0 1.1 1.0	kʌsʰaŋ³	0	55	Back:55
51998	37_back	Back	MARU	MARU	doṅ-koṅ	doṅ-koṅ	d̪ o ŋ + k o ŋ	maru1249	1291	24.942535	99.8338		1 7 4 9 1 7 4	AXN_AXN	TUN_KUN	94	94.T.C 94.U.V 94.N.c 94._._ 94.K.C 94.U.V 94.N.c	2.0 1.5 0.8 0.0 2.0 1.5 0.8	d̪oŋ+koŋ	0	68	Back:68
51999	37_back	Back	MAINGTHAORNGACHANG	MAINGTHA_OR_NGACHANG	hu-luṅ	hu-luṅ	h u + l u ŋ	acha1249	1291	24.3479	97.7438		3 7 9 5 7 4	AX_AXN	HY_LYN	87	87.H.C 87.Y.V 87._._ 87.L.C 87.Y.V 87.N.c	2.0 1.5 0.0 2.0 1.5 0.8	hu+luŋ	0	79	Back:79
52000	37_back	Back	PHUNSAMONG	PHUN_SAMONG	lä-tàṅ ᵃwu	lä-tàṅ ᵃwu	l ɛ + t̪ a ŋ + ă w u	hpon1238	1291	24.4606	97.1142		5 7 9 1 7 4 9 7 6 7	AX_AXN_XBZ	LE_TAN_AWY	114	114.L.C 114.E.V 114._._ 114.T.C 114.A.V 114.N.c 114._._ 114.A.V 114.W.C 114.Y.V	2.0 1.5 0.0 2.0 1.5 0.8 0.0 1.5 1.75 0.8	lɛ+t̪aŋ+ăwu	0	85	Back:85
52002	37_back	Back	MRU	MRU	kūm	kūm	k uː m	mruu1242	1291	24.154	90.6317		1 7 4	AXN	KYM	104	104.K.C 104.Y.V 104.M.c	2.0 1.5 0.8	kuːm	0	53	Back:53
52003	37_back	Back	BURMESEWRITTEN	BURMESE_WRITTEN	kro	kro	k r o	nucl1310	1291	20.7926	93.9665		1 5 7	ACX	KRU	21	21.K.C 21.R.C 21.U.V	2.0 1.5 1.5	kro	0	53	Back:53
52004	37_back	Back	BURMESESPOKEN	BURMESE_SPOKEN	˨˩ tyå	tyå˨˩	t̪ j ɔ ²¹	nucl1310	1291	20.7926	93.9665		1 6 7 8	ACXT	TJU3	20	20.T.C 20.J.C 20.U.V 20.3.T	1.6 1.2 3.0 1.0	t̪jɔ²¹	0	59	Back:59
52005	37_back	Back	ARAKANESE	ARAKANESE	gruā	gruā	g r u ʌː	marm1234	1291	22.759948	92.210748		1 5 7 7	ACXZ	KRYE	9	9.K.C 9.R.C 9.Y.V 9.E.V	2.0 1.5 1.5 0.8	gruʌː	0	53	Back:53
52006	37_back	Back	TAUNGYO	TAUNGYO	kyå	kyå	kʲ ɔ	taun1248	1291	20.4104	96.7401		1 7	AX	KU	145	145.K.C 145.U.V	2.0 1.5	kʲɔ	0	53	Back:53
52007	37_back	Back	DANU	DANU	jå	jå	dʒ ɔ	danu1251	1291				1 7	AX	TU	35	35.T.C 35.U.V	2.0 1.5	dʒɔ	0	59	Back:59
52008	37_back	Back	INTHA	INTHA	nauk ku jå	nauk ku jå	n̪ au k + k u + dʒ ɔ	inth1239	1291				4 7 1 9 1 7 9 1 7	AXN_AX_AX	NAK_KY_TU	52	52.N.C 52.A.V 52.K.c 52._._ 52.K.C 52.Y.V 52._._ 52.T.C 52.U.V	2.0 1.5 0.8 0.0 2.0 1.5 0.0 2.0 1.5	n̪auk+ku+dʒɔ	0	71	Back:71
52009	37_back	Back	TAVOYAN	TAVOYAN	nǒᵗ jå	nǒᵗ jå	n̪ ɒ t̪̚ + dʒ ɔ	tavo1242	1291	14.1078	98.194		4 7 1 9 1 7	AXN_AX	NOT_TU	146	146.N.C 146.O.V 146.T.c 146._._ 146.T.C 146.U.V	2.0 1.5 0.8 0.0 2.0 1.5	n̪ɒt̪̚+dʒɔ	0	71	Back:71
35849	138_beat	Beat	MANDARIN	MANDARIN	˨˦ tā	tā˨˦	t a ²⁴	mand1415	1665	40.0209	116.228		1 7 8	AXT	TA2	89	89.T.C 89.A.V 89.2.T	1.6 3.0 1.0	ta²⁴	0	94	Beat:94
35850	138_beat	Beat	CANTONESE	CANTONESE	˦˥ tā	tā˦˥	t̪ ʌː ⁴⁵	cant1236	1665				1 7 8	AXT	TE2	23	23.T.C 23.E.V 23.2.T	1.6 3.0 1.0	t̪ʌː⁴⁵	0	94	Beat:94
35851	138_beat	Beat	GYAOMI	GYAOMI	tå	tå	t̪ ɔ	mand1415	1665	40.0209	116.228		1 7	AX	TU	45	45.T.C 45.U.V	2.0 1.5	t̪ɔ	0	94	Beat:94
35861	138_beat	Beat	PWOLITERARY	PWO_LITERARY	= dō ˦ s’ī	dō=s’ī˦	d̪ oː + sʰ iː ⁴	phra1235	1665	18.0048	99.6382		1 7 9 3 7 8	AX_AXT	TU_SI6	117	117.T.C 117.U.V 117._._ 117.S.C 117.I.V 117.6.T	1.6 3.0 0.0 1.6 3.0 1.0	d̪oː+sʰiː⁴	0	94	Beat:94
35862	138_beat	Beat	PWOLITERARY	PWO_LITERARY	˦ t’aṅ° ˦ s’ī	t’aṅ°˦s’ī˦	t̪ʰ ʌ ŋ ⁴ + sʰ iː ⁴	phra1235	1665	18.0048	99.6382		1 7 4 8 9 3 7 8	AXLT_AXT	TEN6_SI6	117	117.T.C 117.E.V 117.N.c 117.6.T 117._._ 117.S.C 117.I.V 117.6.T	1.6 3.0 1.1 1.0 0.0 1.6 3.0 1.0	t̪ʰʌŋ⁴+sʰiː⁴	0	94	Beat:94
35863	138_beat	Beat	PWOBASSEIN	PWO_BASSEIN	tà̃ du	tà̃ du	t̪ ã + d̪ u	pwow1235	1665	17.3622	97.7044		1 7 9 1 7	AX_AX	TA_TY	116	116.T.C 116.A.V 116._._ 116.T.C 116.Y.V	2.0 1.5 0.0 2.0 1.5	t̪ã+d̪u	0	94	Beat:94
35864	138_beat	Beat	PWOMAULMEIN	PWO_MAULMEIN	tà̃	tà̃	t̪ ã	pwoe1235	1665	15.1915	98.7355		1 7	AX	TA	118	118.T.C 118.A.V	2.0 1.5	t̪ã	0	94	Beat:94
35865	138_beat	Beat	TAUNGTHU	TAUNGTHU	twä	twä	t̪ w ɛ	paok1235	1665	20.211	97.5969		1 6 7	ACX	TWE	144	144.T.C 144.W.C 144.E.V	2.0 1.5 1.5	t̪wɛ	0	94	Beat:94
35866	138_beat	Beat	SGALITERARY	SGA_LITERARY	˧ dō	dō˧	d̪ oː ³	sgaw1245	1665	17.9872	97.7126		1 7 8	AXT	TU6	129	129.T.C 129.U.V 129.6.T	1.6 3.0 1.0	d̪oː³	0	94	Beat:94
35867	138_beat	Beat	SGALITERARY	SGA_LITERARY	˦˨ tå	tå˦˨	t̪ ɔ ⁴²	sgaw1245	1665	17.9872	97.7126		1 7 8	AXT	TU3	129	129.T.C 129.U.V 129.3.T	1.6 3.0 1.0	t̪ɔ⁴²	0	94	Beat:94
35868	138_beat	Beat	SGASPOKEN	SGA_SPOKEN	ple	ple	p l e	sgaw1245	1665	17.9872	97.7126		1 5 7	ACX	PLE	130	130.P.C 130.L.C 130.E.V	2.0 1.5 1.5	ple	0	97	Beat:97
35869	138_beat	Beat	SGASPOKEN	SGA_SPOKEN	là	là	l a	sgaw1245	1665	17.9872	97.7126		5 7	AX	LA	130	130.L.C 130.A.V	2.0 1.5	la	1	97	Beat:97
35870	138_beat	Beat	SGASPOKEN	SGA_SPOKEN	dà	dà	d̪ a	sgaw1245	1665	17.9872	97.7126		1 7	AX	TA	130	130.T.C 130.A.V	2.0 1.5	d̪a	0	94	Beat:94
35871	138_beat	Beat	SGASPOKEN	SGA_SPOKEN	då	då	d̪ ɔ	sgaw1245	1665	17.9872	97.7126		1 7	AX	TU	130	130.T.C 130.U.V	2.0 1.5	d̪ɔ	1	94	Beat:94
35872	138_beat	Beat	BWE	BWE	bö	bö	b ø	bwek1238	1665	18.9796	96.9936		1 7	AX	PU	22	22.P.C 22.U.V	2.0 1.5	bø	0	93	Beat:93
35873	138_beat	Beat	BWE	BWE	dä	dä	d̪ ɛ	bwek1238	1665	18.9796	96.9936		1 7	AX	TE	22	22.T.C 22.E.V	2.0 1.5	d̪ɛ	0	94	Beat:94
35874	138_beat	Beat	BWE	BWE	klà	klà	k l a	bwek1238	1665	18.9796	96.9936		1 5 7	ACX	KLA	22	22.K.C 22.L.C 22.A.V	2.0 1.5 1.5	kla	0	97	Beat:97
35875	138_beat	Beat	BWE	BWE	plä	plä	p l ɛ	bwek1238	1665	18.9796	96.9936		1 5 7	ACX	PLE	22	22.P.C 22.L.C 22.E.V	2.0 1.5 1.5	plɛ	0	97	Beat:97
35876	138_beat	Beat	BWE	BWE	θà	θà	θ a	bwek1238	1665	18.9796	96.9936		3 7	AX	DA	22	22.D.C 22.A.V	2.0 1.5	θa	0	94	Beat:94
35877	138_beat	Beat	WEWAW	WEWAW	ɣä	ɣä	ɣ ɛ	wewa1238	1665	19.020577	96.540526		3 7	AX	GE	157	157.G.C 157.E.V	2.0 1.5	ɣɛ	0	96	Beat:96
35878	138_beat	Beat	KARENBYU	KARENBYU	plä	plä	p l ɛ	geba1237	1665	19.4991	96.9492		1 5 7	ACX	PLE	58	58.P.C 58.L.C 58.E.V	2.0 1.5 1.5	plɛ	0	97	Beat:97
35879	138_beat	Beat	BRAEO	BRAEO	bö	bö	b ø	geba1237	1665	19.4991	96.9492		1 7	AX	PU	19	19.P.C 19.U.V	2.0 1.5	bø	0	93	Beat:93
35880	138_beat	Beat	BRAEO	BRAEO	blä	blä	b l ɛ	geba1237	1665	19.4991	96.9492		1 5 7	ACX	PLE	19	19.P.C 19.L.C 19.E.V	2.0 1.5 1.5	blɛ	0	97	Beat:97
35881	138_beat	Beat	KARENNI	KARENNI	plyà	plyà	p l j a	east2342	1665	19.8939	98.3359		1 5 6 7	ACCX	PLJA	59	59.P.C 59.L.C 59.J.C 59.A.V	2.0 1.5 1.5 1.5	plja	0	97	Beat:97
35882	138_beat	Beat	KARENNI	KARENNI	mö	mö	m ø	east2342	1665	19.8939	98.3359		4 7	AX	MU	59	59.M.C 59.U.V	2.0 1.5	mø	0	98	Beat:98
35883	138_beat	Beat	KARENNI	KARENNI	bà	bà	b a	east2342	1665	19.8939	98.3359		1 7	AX	PA	59	59.P.C 59.A.V	2.0 1.5	ba	0	93	Beat:93
35884	138_beat	Beat	YINTALAE	YINTALAE	mo	mo	m o	yint1235	1665	18.9378	97.3368		4 7	AX	MU	162	162.M.C 162.U.V	2.0 1.5	mo	0	98	Beat:98
35885	138_beat	Beat	SINHMAOMAEPAUK	SIN_HMAO_MAEPAUK	twàn	twàn	t̪ w a n̪	manu1255	1665	19.165	96.9531		1 6 7 4	ACXN	TWAN	135	135.T.C 135.W.C 135.A.V 135.N.c	2.0 1.5 1.5 0.8	t̪wan̪	0	94	Beat:94
35886	138_beat	Beat	GHEKO	GHEKO	pläi	pläi	p l ɛ i	geko1235	1665	19.6741	96.5308		1 5 7 7	ACXZ	PLEI	43	43.P.C 43.L.C 43.E.V 43.I.V	2.0 1.5 1.5 0.8	plɛi	0	97	Beat:97
35887	138_beat	Beat	PADAUNG	PADAUNG	plai	plai	p l ai	kaya1315	1665	19.5183	97.4138		1 5 7	ACX	PLA	110	110.P.C 110.L.C 110.A.V	2.0 1.5 1.5	plai	0	97	Beat:97
35888	138_beat	Beat	YEINBA	YEINBA	pleᵗ	pleᵗ	p l e t̪̚	yinb1236	1665	19.0383	97.2134		1 5 7 1	ACXN	PLET	161	161.P.C 161.L.C 161.E.V 161.T.c	2.0 1.5 1.5 0.8	plet̪̚	0	97	Beat:97
35889	138_beat	Beat	YEINBA	YEINBA	dai	dai	d̪ ai	yinb1236	1665	19.0383	97.2134		1 7	AX	TA	161	161.T.C 161.A.V	2.0 1.5	d̪ai	0	94	Beat:94
35890	138_beat	Beat	YEINBA	YEINBA	blà̃	blà̃	b l ã	yinb1236	1665	19.0383	97.2134		1 5 7	ACX	PLA	161	161.P.C 161.L.C 161.A.V	2.0 1.5 1.5	blã	0	97	Beat:97
35891	138_beat	Beat	MANOE	MANOE	pu	pu	p u	manu1255	1665	19.165	96.9531		1 7	AX	PY	90	90.P.C 90.Y.V	2.0 1.5	pu	0	93	Beat:93
35892	138_beat	Beat	ZAVEIN	ZAVEIN	wàn	wàn	w a n̪	zaye1235	1665	20.16	96.908		6 7 4	AXN	WAN	163	163.W.C 163.A.V 163.N.c	2.0 1.5 0.8	wan̪	0	95	Beat:95
35893	138_beat	Beat	MOPWABILICHI	MOPWA_BILICHI	là	là	l a	bili1249	1665				5 7	AX	LA	100	100.L.C 100.A.V	2.0 1.5	la	0	97	Beat:97
35894	138_beat	Beat	MOPWADERMUHA	MOPWA_DERMUHA	ɣu	ɣu	ɣ u	derm1238	1665				3 7	AX	GY	101	101.G.C 101.Y.V	2.0 1.5	ɣu	0	94	Beat:94
35901	138_beat	Beat	MANCHATIORPATNI	MANCHATI_OR_PATNI	teṅ	teṅ	t̪ e ŋ	karb1241	1665	25.7317	93.0462		1 7 4	AXN	TEN	88	88.T.C 88.E.V 88.N.c	2.0 1.5 0.8	t̪eŋ	0	94	Beat:94
35902	138_beat	Beat	CHAMBALAHULI	CHAMBA_LAHULI	tē	tē	t̪ eː	cham1308	1665				1 7	AX	TE	25	25.T.C 25.E.V	2.0 1.5	t̪eː	0	94	Beat:94
35903	138_beat	Beat	KANASHI	KANASHI	to	to	t̪ o	kana1283	1665	32.2843	77.1553		1 7	AX	TU	56	56.T.C 56.U.V	2.0 1.5	t̪o	0	94	Beat:94
35904	138_beat	Beat	KANAURI	KANAURI	toṅ	toṅ	t̪ o ŋ	kinn1249	1665	31.3688	78.3148		1 7 4	AXN	TUN	57	57.T.C 57.U.V 57.N.c	2.0 1.5 0.8	t̪oŋ	0	94	Beat:94
35905	138_beat	Beat	RANGKAS	RANGKAS	sā	sā	s ʌː	rang1266	1665	29.2278	80.0845		3 7	AX	SE	121	121.S.C 121.E.V	2.0 1.5	sʌː	0	108	Beat:108
35906	138_beat	Beat	DHIMAL	DHIMAL	dåṅ-hai	dåṅ-hai	d̪ ɔ ŋ + h ai	dhim1246	1665	26.6283	88.3798		1 7 4 9 3 7	AXN_AX	TUN_HA	37	37.T.C 37.U.V 37.N.c 37._._ 37.H.C 37.A.V	2.0 1.5 0.8 0.0 2.0 1.5	d̪ɔŋ+hai	0	94	Beat:94
35907	138_beat	Beat	THAMI	THAMI	ṛe	ṛe	ɽ e	than1259	1665	28.7554	85.7657		5 7	AX	RE	149	149.R.C 149.E.V	2.0 1.5	ɽe	0	99	Beat:99
35908	138_beat	Beat	LIMBU	LIMBU	hip	hip	h i p	limb1266	1665	27.2703	87.8859		3 7 1	AXN	HIP	79	79.H.C 79.I.V 79.P.c	2.0 1.5 0.8	hip	0	108	Beat:108
35909	138_beat	Beat	YAKHA	YAKHA	mōk	mōk	m oː k	yakk1236	1665	27.3714	87.9306		4 7 1	AXN	MUK	159	159.M.C 159.U.V 159.K.c	2.0 1.5 0.8	moːk	0	98	Beat:98
35910	138_beat	Beat	KHAMBU	KHAMBU	ker	ker	k e r	kham1288	1665				1 7 5	AXN	KER	62	62.K.C 62.E.V 62.R.c	2.0 1.5 0.8	ker	0	104	Beat:104
35911	138_beat	Beat	BAHING	BAHING	tö-p	tö-p	t̪ ø + p	bahi1252	1665	27.3323	86.3949		1 7 9 1	AX_A	TU_P	10	10.T.C 10.U.V 10._._ 10.P.C	2.0 1.5 0.0 2.0	t̪ø+p	0	94	Beat:94
35912	138_beat	Beat	BALALI	BALALI	lo	lo	l o	nort2727	1665	27.5102	87.2157		5 7	AX	LU	11	11.L.C 11.U.V	2.0 1.5	lo	0	97	Beat:97
35913	138_beat	Beat	SANGPANG	SANGPANG	yo	yo	j o	samp1249	1665	27.2999	87.0019		6 7	AX	JU	126	126.J.C 126.U.V	2.0 1.5	jo	0	99	Beat:99
35914	138_beat	Beat	SANGPANG	SANGPANG	kīr	kīr	k iː r	samp1249	1665	27.2999	87.0019		1 7 5	AXN	KIR	126	126.K.C 126.I.V 126.R.c	2.0 1.5 0.8	kiːr	0	116	Beat:116
35915	138_beat	Beat	SANGPANG	SANGPANG	yōp	yōp	j oː p	samp1249	1665	27.2999	87.0019		6 7 1	AXN	JUP	126	126.J.C 126.U.V 126.P.c	2.0 1.5 0.8	joːp	0	100	Beat:100
35916	138_beat	Beat	LOHORONG	LOHORONG	lō	lō	l oː	nort2727	1665	27.5102	87.2157		5 7	AX	LU	82	82.L.C 82.U.V	2.0 1.5	loː	0	97	Beat:97
35917	138_beat	Beat	LAMBICHHONG	LAMBICHHONG	te	te	t̪ e	yakk1236	1665	27.3714	87.9306		1 7	AX	TE	76	76.T.C 76.E.V	2.0 1.5	t̪e	0	94	Beat:94
35918	138_beat	Beat	WALING	WALING	mō	mō	m oː	wali1261	1665	26.6369	86.4837		4 7	AX	MU	156	156.M.C 156.U.V	2.0 1.5	moː	0	98	Beat:98
35919	138_beat	Beat	CHHINGTANG	CHHINGTANG	tē	tē	t̪ eː	chhi1245	1665	26.961	87.1899		1 7	AX	TE	28	28.T.C 28.E.V	2.0 1.5	t̪eː	0	94	Beat:94
35920	138_beat	Beat	RUNGCHHENBUNG	RUNGCHHENBUNG	mo	mo	m o	bant1281	1665	27.12147	87.04738		4 7	AX	MU	125	125.M.C 125.U.V	2.0 1.5	mo	0	98	Beat:98
35921	138_beat	Beat	DUNGMALI	DUNGMALI	no	no	n̪ o	dung1252	1665	26.9813	87.3328		4 7	AX	NU	40	40.N.C 40.U.V	2.0 1.5	n̪o	0	100	Beat:100
35922	138_beat	Beat	RODONGORCHAMLING	RODONG_OR_CHAMLING	chaī	chaī	tʃ ʌ iː	caml1239	1665	27.3371	86.7612		1 7 7	AXZ	TEI	123	123.T.C 123.E.V 123.I.V	2.0 1.5 0.8	tʃʌiː	0	94	Beat:94
35923	138_beat	Beat	NACHHERENG	NACHHERENG	yōp	yōp	j oː p	nach1240	1665	27.4202	86.7001		6 7 1	AXN	JUP	106	106.J.C 106.U.V 106.P.c	2.0 1.5 0.8	joːp	0	100	Beat:100
35924	138_beat	Beat	KULUNG	KULUNG	kēr	kēr	k eː r	kulu1253	1665	27.1606	87.5717		1 7 5	AXN	KER	69	69.K.C 69.E.V 69.R.c	2.0 1.5 0.8	keːr	0	105	Beat:105
35925	138_beat	Beat	THULUNG	THULUNG	yal	yal	j ʌ l	drun1238	1665	28.00792	98.49449		6 7 5	AXN	JEL	152	152.J.C 152.E.V 152.L.c	2.0 1.5 0.8	jʌl	0	100	Beat:100
35926	138_beat	Beat	CHAURASYA	CHAURASYA	tūp	tūp	t̪ uː p	wamb1257	1665	27.14808	86.47646		1 7 1	AXN	TYP	27	27.T.C 27.Y.V 27.P.c	2.0 1.5 0.8	t̪uːp	0	94	Beat:94
35927	138_beat	Beat	KHALING	KHALING	yāl	yāl	j ʌː l	khal1275	1665	27.3912	87.5053		6 7 5	AXN	JEL	61	61.J.C 61.E.V 61.L.c	2.0 1.5 0.8	jʌːl	0	100	Beat:100
35928	138_beat	Beat	DUMI	DUMI	klēn	klēn	k l eː n̪	dumi1241	1665	27.45849	86.75699		1 5 7 4	ACXN	KLEN	39	39.K.C 39.L.C 39.E.V 39.N.c	2.0 1.5 1.5 0.8	kleːn̪	0	97	Beat:97
35929	138_beat	Beat	RAIORJIMDAR	RAI_OR_JIMDAR	yum	yum	j u m	athp1241	1665	26.8794	87.3296		6 7 4	AXN	JYM	120	120.J.C 120.Y.V 120.M.c	2.0 1.5 0.8	jum	0	100	Beat:100
35930	138_beat	Beat	RAIORJIMDAR	RAI_OR_JIMDAR	yom	yom	j o m	athp1241	1665	26.8794	87.3296		6 7 4	AXN	JUM	120	120.J.C 120.U.V 120.M.c	2.0 1.5 0.8	jom	0	100	Beat:100
35931	138_beat	Beat	VAYUORHAYU	VAYU_OR_HAYU	to-ᵖ (tō)	to-ᵖ	t̪ o + p̚	wayu1241	1665	27.3047	86.1227		1 7 9 1	AX_A	TU_P	155	155.T.C 155.U.V 155._._ 155.P.C	2.0 1.5 0.0 2.0	t̪o+p̚	0	94	Beat:94
35932	138_beat	Beat	GURUNG	GURUNG	tõ	tõ	t̪ õ	east2345	1665	28.4368	84.58145		1 7	AX	TU	44	44.T.C 44.U.V	2.0 1.5	t̪õ	0	94	Beat:94
35933	138_beat	Beat	GURUNG	GURUNG	hoā	hoā	h o ʌː	east2345	1665	28.4368	84.58145		3 7 7	AXZ	HUE	44	44.H.C 44.U.V 44.E.V	2.0 1.5 0.8	hoʌː	0	115	Beat:115
35934	138_beat	Beat	MURMI	MURMI	rop	rop	r o p	west2415	1665	28.0239	85.0563		5 7 1	AXN	RUP	105	105.R.C 105.U.V 105.P.c	2.0 1.5 0.8	rop	0	110	Beat:110
35935	138_beat	Beat	MURMI	MURMI	puṅ	puṅ	p u ŋ	west2415	1665	28.0239	85.0563		1 7 4	AXN	PYN	105	105.P.C 105.Y.V 105.N.c	2.0 1.5 0.8	puŋ	0	93	Beat:93
35936	138_beat	Beat	SUNWAR	SUNWAR	tup	tup	t̪ u p	sunw1242	1665	27.5201	86.2476		1 7 1	AXN	TYP	138	138.T.C 138.Y.V 138.P.c	2.0 1.5 0.8	t̪up	0	94	Beat:94
35937	138_beat	Beat	MAGARI	MAGARI	duṅ	duṅ	d̪ u ŋ	west2418	1665	28.2462	83.511		1 7 4	AXN	TYN	86	86.T.C 86.Y.V 86.N.c	2.0 1.5 0.8	d̪uŋ	0	94	Beat:94
35938	138_beat	Beat	MAGARI	MAGARI	dā-t’uk	dā-t’uk	d̪ ʌː + t̪ʰ u k	west2418	1665	28.2462	83.511		1 7 9 1 7 1	AX_AXN	TE_TYK	86	86.T.C 86.E.V 86._._ 86.T.C 86.Y.V 86.K.c	2.0 1.5 0.0 2.0 1.5 0.8	d̪ʌː+t̪ʰuk	0	94	Beat:94
35939	138_beat	Beat	NEWARI	NEWARI	dā	dā	d̪ ʌː	newa1246	1665	27.2614	84.9577		1 7	AX	TE	108	108.T.C 108.E.V	2.0 1.5	d̪ʌː	0	94	Beat:94
35940	138_beat	Beat	PADIPAHRIORPAHI	PADI_PAHRI_OR_PAHI	dā	dā	d̪ ʌː	newa1246	1665	27.2614	84.9577		1 7	AX	TE	111	111.T.C 111.E.V	2.0 1.5	d̪ʌː	0	94	Beat:94
35941	138_beat	Beat	RONGORLEPCHA	RONG_OR_LEPCHA	būk	būk	b uː k	lepc1244	1665	27.0869	88.5726		1 7 1	AXN	PYK	124	124.P.C 124.Y.V 124.K.c	2.0 1.5 0.8	buːk	0	93	Beat:93
35942	138_beat	Beat	RONGORLEPCHA	RONG_OR_LEPCHA	lyūᵖ	lyūᵖ	l j uː p̚	lepc1244	1665	27.0869	88.5726		5 6 7 1	ACXN	LJYP	124	124.L.C 124.J.C 124.Y.V 124.P.c	2.0 1.5 1.5 0.8	ljuːp̚	0	97	Beat:97
35943	138_beat	Beat	TOTO	TOTO	sāpu (?)	sāpu	s ʌː p u	toto1302	1665	26.67	88.975		3 7 1 7	AXBZ	SEPY	154	154.S.C 154.E.V 154.P.C 154.Y.V	2.0 1.5 1.75 0.8	sʌːpu	0	108	Beat:108
35946	138_beat	Beat	ABOR	ABOR	pā	pā	p ʌː	bori1243	1665	27.62812	94.3538		1 7	AX	PE	1	1.P.C 1.E.V	2.0 1.5	pʌː	0	93	Beat:93
35947	138_beat	Beat	MIRI	MIRI	pā	pā	p ʌː	misi1242	1665	27.418	94.69		1 7	AX	PE	98	98.P.C 98.E.V	2.0 1.5	pʌː	0	93	Beat:93
35948	138_beat	Beat	DAFLA	DAFLA	ma	ma	m ʌ	nyis1236	1665	27.278263	93.675529		4 7	AX	ME	33	33.M.C 33.E.V	2.0 1.5	mʌ	0	98	Beat:98
35949	138_beat	Beat	MISHMIDIGARU	MISHMI_DIGARU	hābā	hābā	h ʌː b ʌː	diga1241	1665	28.4993	96.8803		3 7 1 7	AXBZ	HEPE	99	99.H.C 99.E.V 99.P.C 99.E.V	2.0 1.5 1.75 0.8	hʌːbʌː	0	93	Beat:93
35950	138_beat	Beat	MIJU	MIJU	pōṅ	pōṅ	p oː ŋ	miju1243	1665	28.4732	97.0444		1 7 4	AXN	PUN	96	96.P.C 96.U.V 96.N.c	2.0 1.5 0.8	poːŋ	0	93	Beat:93
35951	138_beat	Beat	LOLONI	LOLO_NI	˨˦ dä	dä˨˦	d̪ ɛ ²⁴	axiy1235	1665	24.6009	103.713		1 7 8	AXT	TE2	83	83.T.C 83.E.V 83.2.T	1.6 3.0 1.0	d̪ɛ²⁴	0	94	Beat:94
35955	138_beat	Beat	LOLOPHO	LOLO_PHO	dä°	dä°	d̪ ɛ	lagh1245	1665	22.2674	103.929		1 7	AX	TE	84	84.T.C 84.E.V	2.0 1.5	d̪ɛ	0	94	Beat:94
35956	138_beat	Beat	AKAKA	A_KA_KA	di	di	d̪ i	akha1245	1665	21.2309	100.964		1 7	AX	TI	3	3.T.C 3.I.V	2.0 1.5	d̪i	0	94	Beat:94
35957	138_beat	Beat	AKO	A_KO	tö	tö	t̪ ø	akoo1247	1665				1 7	AX	TU	4	4.T.C 4.U.V	2.0 1.5	t̪ø	0	94	Beat:94
35958	138_beat	Beat	LISU	LISU	˦ tī (with a stick)	tī˦	t̪ iː ⁴	lisu1250	1665	26.91	98.94		1 7 8	AXT	TI6	81	81.T.C 81.I.V 81.6.T	1.6 3.0 1.0	t̪iː⁴	0	94	Beat:94
35959	138_beat	Beat	LISU	LISU	˨ dɯ (with the hand)	dɯ˨	d̪ ɯ ²	lisu1250	1665	26.91	98.94		1 7 8	AXT	TI6	81	81.T.C 81.I.V 81.6.T	1.6 3.0 1.0	d̪ɯ²	0	94	Beat:94
35960	138_beat	Beat	LISHAOYAOYIN	LISHAO_YAOYIN	ti	ti	t̪ i	lisu1250	1665	26.91	98.94		1 7	AX	TI	80	80.T.C 80.I.V	2.0 1.5	t̪i	0	94	Beat:94
35961	138_beat	Beat	MOSHO	MO_SHO	la	la	l ʌ	lahu1253	1665	21.2701	100.214		5 7	AX	LE	103	103.L.C 103.E.V	2.0 1.5	lʌ	0	97	Beat:97
35962	138_beat	Beat	LAHU	LAHU	då	då	d̪ ɔ	lahu1253	1665	21.2701	100.214		1 7	AX	TU	73	73.T.C 73.U.V	2.0 1.5	d̪ɔ	0	94	Beat:94
35963	138_beat	Beat	PYENORPYIN	PYEN_OR_PYIN	tü	tü	t̪ y	pyen1239	1665	20.759	100.029		1 7	AX	TY	119	119.T.C 119.Y.V	2.0 1.5	t̪y	0	94	Beat:94
35964	138_beat	Beat	NUNG	NUNG	dip	dip	d̪ i p	nung1282	1665	27.2887	98.7333		1 7 1	AXN	TIP	109	109.T.C 109.I.V 109.P.c	2.0 1.5 0.8	d̪ip	0	94	Beat:94
35965	138_beat	Beat	GYAORUNG	GYAORUNG	tà-tūp	tà-tūp	t̪ a + t̪ uː p	jiar1240	1665	31.60295	102.22875		1 7 9 1 7 1	AX_AXN	TA_TYP	46	46.T.C 46.A.V 46._._ 46.T.C 46.Y.V 46.P.c	2.0 1.5 0.0 2.0 1.5 0.8	t̪a+t̪uːp	0	102	Beat:102
35966	138_beat	Beat	MANYAK	MANYAK	dàn-t’å	dàn-t’å	d̪ a n̪ + t̪ʰ ɔ	muya1239	1665	29.8226	102.205		1 7 4 9 1 7	AXN_AX	TAN_TU	91	91.T.C 91.A.V 91.N.c 91._._ 91.T.C 91.U.V	2.0 1.5 0.8 0.0 2.0 1.5	d̪an̪+t̪ʰɔ	0	94	Beat:94
35970	138_beat	Beat	BHOTIATIBETANWRITTEN	BHOTIA_TIBETAN_WRITTEN	rduṅ	rduṅ	r d̪ u ŋ	sikk1242	1665	27.85795	88.59153		5 1 7 4	ACYN	RTYN	17	17.R.C 17.T.C 17.Y.V 17.N.c	2.0 1.5 1.3 0.8	rd̪uŋ	0	94	Beat:94
35971	138_beat	Beat	BHOTIATIBETANSPOKEN	BHOTIA_TIBETAN_SPOKEN	duṅ	duṅ	d̪ u ŋ	sikk1242	1665	27.85795	88.59153		1 7 4	AXN	TYN	16	16.T.C 16.Y.V 16.N.c	2.0 1.5 0.8	d̪uŋ	0	94	Beat:94
35972	138_beat	Beat	BALTI	BALTI	tᵉaṅ	tᵉaṅ	t̪ ĕ ʌ ŋ	balt1258	1665	34.4491	77.2859		1 7 7 4	AXYN	TEEN	12	12.T.C 12.E.V 12.E.V 12.N.c	2.0 1.5 1.3 0.8	t̪ĕʌŋ	0	94	Beat:94
35973	138_beat	Beat	BALTI	BALTI	rduṅ	rduṅ	r d̪ u ŋ	balt1258	1665	34.4491	77.2859		5 1 7 4	ACYN	RTYN	12	12.R.C 12.T.C 12.Y.V 12.N.c	2.0 1.5 1.3 0.8	rd̪uŋ	0	94	Beat:94
35974	138_beat	Beat	BHOTIAOFPURIK	BHOTIA_OF_PURIK	rduṅ	rduṅ	r d̪ u ŋ	puri1258	1665	34.3386	76.0127		5 1 7 4	ACYN	RTYN	15	15.R.C 15.T.C 15.Y.V 15.N.c	2.0 1.5 1.3 0.8	rd̪uŋ	0	94	Beat:94
35975	138_beat	Beat	LADAKHI	LADAKHI	rduṅ	rduṅ	r d̪ u ŋ	lada1244	1665	33.468	80.6013		5 1 7 4	ACYN	RTYN	71	71.R.C 71.T.C 71.Y.V 71.N.c	2.0 1.5 1.3 0.8	rd̪uŋ	0	94	Beat:94
35976	138_beat	Beat	LADAKHIOFSPITI	LADAKHI_OF_SPITI	gyap	gyap	gʲ ʌ p	spit1240	1665	32.526	77.833		1 7 1	AXN	KEP	72	72.K.C 72.E.V 72.P.c	2.0 1.5 0.8	gʲʌp	1	106	Beat:106
35977	138_beat	Beat	KAGATE	KAGATE	rop	rop	r o p	kaga1252	1665	27.4492	86.1675		5 7 1	AXN	RUP	55	55.R.C 55.U.V 55.P.c	2.0 1.5 0.8	rop	0	103	Beat:103
35978	138_beat	Beat	SHARPA	SHARPA	duṅ	duṅ	d̪ u ŋ	sher1255	1665	27.674	86.9994		1 7 4	AXN	TYN	131	131.T.C 131.Y.V 131.N.c	2.0 1.5 0.8	d̪uŋ	0	94	Beat:94
35979	138_beat	Beat	DANJONGKA	DANJONGKA	tip	tip	t̪ i p	sikk1242	1665	27.85795	88.59153		1 7 1	AXN	TIP	34	34.T.C 34.I.V 34.P.c	2.0 1.5 0.8	t̪ip	0	94	Beat:94
35980	138_beat	Beat	HLOKE	HLOKE	duṅ	duṅ	d̪ u ŋ	lowa1242	1665	29.0324	83.8959		1 7 4	AXN	TYN	49	49.T.C 49.Y.V 49.N.c	2.0 1.5 0.8	d̪uŋ	0	94	Beat:94
35981	138_beat	Beat	BODOORBARA	BODO_OR_BARA	bu	bu	b u	bodo1269	1665	26.1	92.0		1 7	AX	PY	18	18.P.C 18.Y.V	2.0 1.5	bu	0	93	Beat:93
35982	138_beat	Beat	LALUNG	LALUNG	ba-t’āl	ba-t’āl	b ʌ + t̪ʰ ʌː l	tiwa1253	1665	26.0667	92.2583		1 7 9 1 7 5	AX_AXN	PE_TEL	75	75.P.C 75.E.V 75._._ 75.T.C 75.E.V 75.L.c	2.0 1.5 0.0 2.0 1.5 0.8	bʌ+t̪ʰʌːl	0	102	Beat:102
35983	138_beat	Beat	LALUNG	LALUNG	pa-t’āl	pa-t’āl	p ʌ + t̪ʰ ʌː l	tiwa1253	1665	26.0667	92.2583		1 7 9 1 7 5	AX_AXN	PE_TEL	75	75.P.C 75.E.V 75._._ 75.T.C 75.E.V 75.L.c	2.0 1.5 0.0 2.0 1.5 0.8	pʌ+t̪ʰʌːl	0	102	Beat:102
35984	138_beat	Beat	DIMASA	DIMA_SA	šū	šū	ʃ uː	dima1251	1665	25.4198	93.1806		3 7	AX	SY	38	38.S.C 38.Y.V	2.0 1.5	ʃuː	0	96	Beat:96
35985	138_beat	Beat	GAROACHIK	GARO_ACHIK	dǒk	dǒk	d̪ ɒ k	garo1247	1665	25.2954	90.462		1 7 1	AXN	TOK	42	42.T.C 42.O.V 42.K.c	2.0 1.5 0.8	d̪ɒk	0	94	Beat:94
35986	138_beat	Beat	KOCH	KOCH	chum	chum	tʃ u m	koch1250	1665	25.7962	90.2566		1 7 4	AXN	TYM	66	66.T.C 66.Y.V 66.M.c	2.0 1.5 0.8	tʃum	0	100	Beat:100
35987	138_beat	Beat	TIPURA	TIPURA	bu	bu	b u	kokb1239	1665	23.1916	91.4673		1 7	AX	PY	153	153.P.C 153.Y.V	2.0 1.5	bu	0	93	Beat:93
35988	138_beat	Beat	DEURICHUTIYA	DEURI_CHUTIYA	bǒ	bǒ	b ɒ	deor1238	1665	26.86152	93.70572		1 7	AX	PO	36	36.P.C 36.O.V	2.0 1.5	bɒ	0	93	Beat:93
35989	138_beat	Beat	ANGAMI	ANGAMI	vü	vü	v y	anga1288	1665	25.6841	93.8668		3 7	AX	BY	7	7.B.C 7.Y.V	2.0 1.5	vy	0	95	Beat:95
35990	138_beat	Beat	SEMA	SEMA	bu	bu	b u	sumi1235	1665	25.9996	94.4235		1 7	AX	PY	127	127.P.C 127.Y.V	2.0 1.5	bu	0	93	Beat:93
35991	138_beat	Beat	SEMA	SEMA	he	he	h e	sumi1235	1665	25.9996	94.4235		3 7	AX	HE	127	127.H.C 127.E.V	2.0 1.5	he	0	108	Beat:108
35992	138_beat	Beat	RENGMA	RENGMA	vü	vü	v y	nort2725	1665	26.4492	94.5683		3 7	AX	BY	122	122.B.C 122.Y.V	2.0 1.5	vy	0	109	Beat:109
35993	138_beat	Beat	KEZAMA	KEZAMA	dā	dā	d̪ ʌː	khez1235	1665	25.7078	94.3114		1 7	AX	TE	60	60.T.C 60.E.V	2.0 1.5	d̪ʌː	0	94	Beat:94
35994	138_beat	Beat	SOPVOMA	SOPVOMA	dā	dā	d̪ ʌː	maon1238	1665	25.3836	94.0035		1 7	AX	TE	137	137.T.C 137.E.V	2.0 1.5	d̪ʌː	0	94	Beat:94
35995	138_beat	Beat	AO	AO	zak	zak	z ʌ k	aona1235	1665	26.3241	94.3824		3 7 1	AXN	SEK	8	8.S.C 8.E.V 8.K.c	2.0 1.5 0.8	zʌk	0	96	Beat:96
35996	138_beat	Beat	HLOTA	HLOTA	tāp	tāp	t̪ ʌː p	loth1237	1665	26.01396	94.04355		1 7 1	AXN	TEP	50	50.T.C 50.E.V 50.P.c	2.0 1.5 0.8	t̪ʌːp	0	102	Beat:102
35997	138_beat	Beat	TENGSA	TENGSA	tap (?)	tap	t̪ ʌ p	tase1235	1665	27.2572	96.3855		1 7 1	AXN	TEP	147	147.T.C 147.E.V 147.P.c	2.0 1.5 0.8	t̪ʌp	0	94	Beat:94
35998	138_beat	Beat	THUKUMI	THUKUMI	šik (?)	šik	ʃ i k	sang1321	1665	25.8581	94.6279		3 7 1	AXN	SIK	151	151.S.C 151.I.V 151.K.c	2.0 1.5 0.8	ʃik	0	113	Beat:113
35999	138_beat	Beat	YACHUMI	YACHUMI	šik (?)	šik	ʃ i k	yimc1240	1665	25.7675	94.8087		3 7 1	AXN	SIK	158	158.S.C 158.I.V 158.K.c	2.0 1.5 0.8	ʃik	0	99	Beat:99
36000	138_beat	Beat	TABLENG	TABLENG	šet	šet	ʃ e t̪	kony1248	1665	26.6823	95.0598		3 7 1	AXN	SET	140	140.S.C 140.E.V 140.T.c	2.0 1.5 0.8	ʃet̪	0	111	Beat:111
36001	138_beat	Beat	TAMLU	TAMLU	up	up	u p	phom1236	1665	26.4715	94.7476		7 1	XN	YP	141	141.Y.V 141.P.c	1.5 0.8	up	0	112	Beat:112
36002	138_beat	Beat	BANPARA	BANPARA	māi	māi	m aːi	wanc1238	1665	26.2581	94.8936		4 7	AX	MA	14	14.M.C 14.A.V	2.0 1.5	maːi	0	98	Beat:98
36003	138_beat	Beat	NAMSANGIA	NAMSANGIA	vāt	vāt	v ʌː t̪	noct1238	1665	27.152	95.3903		3 7 1	AXN	BET	107	107.B.C 107.E.V 107.T.c	2.0 1.5 0.8	vʌːt̪	0	109	Beat:109
36004	138_beat	Beat	CHANG	CHANG	ṅàm	ṅàm	ŋ a m	chan1313	1665	26.4336	94.9536		4 7 4	AXN	NAM	26	26.N.C 26.A.V 26.M.c	2.0 1.5 0.8	ŋam	0	100	Beat:100
36005	138_beat	Beat	MOSHANG	MOSHANG	dat (?)	dat	d̪ ʌ t̪	mosa1240	1665	27.0964	95.9001		1 7 1	AXN	TET	102	102.T.C 102.E.V 102.T.c	2.0 1.5 0.8	d̪ʌt̪	0	109	Beat:109
36006	138_beat	Beat	EMPEO	EMPEO	bēō	bēō	b eː oː	zeme1240	1665	25.3499	93.6463		1 7 7	AXZ	PEU	41	41.P.C 41.E.V 41.U.V	2.0 1.5 0.8	beːoː	0	93	Beat:93
36007	138_beat	Beat	KABUI	KABUI	bāi	bāi	b aːi	rong1266	1665	25.098	93.7869		1 7	AX	PA	53	53.P.C 53.A.V	2.0 1.5	baːi	0	93	Beat:93
36008	138_beat	Beat	KHOIRAO	KHOIRAO	wū	wū	w uː	than1255	1665	25.3472	93.8396		6 7	AX	WY	65	65.W.C 65.Y.V	2.0 1.5	wuː	0	101	Beat:101
36009	138_beat	Beat	MIKIR	MIKIR	chåk	chåk	tʃ ɔ k	karb1241	1665	25.7317	93.0462		1 7 1	AXN	TUK	97	97.T.C 97.U.V 97.K.c	2.0 1.5 0.8	tʃɔk	0	94	Beat:94
36010	138_beat	Beat	MARAM	MARAM	lāk	lāk	l ʌː k	mara1379	1665	25.4378	94.2205		5 7 1	AXN	LEK	92	92.L.C 92.E.V 92.K.c	2.0 1.5 0.8	lʌːk	0	96	Beat:96
36011	138_beat	Beat	KWOIRENG	KWOIRENG	lē-ā	lē-ā	l eː + ʌː	lian1251	1665	25.16	93.542		5 7 9 7	AX_X	LE_E	70	70.L.C 70.E.V 70._._ 70.E.V	2.0 1.5 0.0 1.5	leː+ʌː	0	97	Beat:97
36012	138_beat	Beat	TANGKHUL	TANGKHUL	šao	šao	ʃ ʌ o	ukhr1238	1665				3 7 7	AXZ	SEU	142	142.S.C 142.E.V 142.U.V	2.0 1.5 0.8	ʃʌo	0	108	Beat:108
36013	138_beat	Beat	PHADANG	PHADANG	mp’īt	mp’īt	m pʰ iː t̪	phad1238	1665				4 1 7 1	ACYN	MPIT	113	113.M.C 113.P.C 113.I.V 113.T.c	2.0 1.5 1.3 0.8	mpʰiːt̪	0	95	Beat:95
36014	138_beat	Beat	KHANGOI	KHANGOI	kā-dāṅ	kā-dāṅ	k ʌː + d̪ ʌː ŋ	khan1277	1665	25.73633	94.247299		1 7 9 1 7 4	AX_AXN	KE_TEN	64	64.K.C 64.E.V 64._._ 64.T.C 64.E.V 64.N.c	2.0 1.5 0.0 2.0 1.5 0.8	kʌː+d̪ʌːŋ	0	94	Beat:94
36015	138_beat	Beat	MARING	MARING	ūm	ūm	uː m	mari1416	1665	24.2854	94.0723		7 4	XN	YM	93	93.Y.V 93.M.c	1.5 0.8	uːm	0	100	Beat:100
36016	138_beat	Beat	CHINGPAORKACHIN	CHINGPA_OR_KACHIN	kᵃyàᵗ	kᵃyàᵗ	k ă j a t̪̚	kach1280	1665	25.4634	97.3278		1 7 6 7 1	AXBYN	KAJAT	31	31.K.C 31.A.V 31.J.C 31.A.V 31.T.c	2.0 1.5 1.75 1.3 0.8	kăjat̪̚	0	100	Beat:100
36018	138_beat	Beat	SINGPHO	SINGPHO	dūp	dūp	d̪ uː p	sing1264	1665	27.296	95.606		1 7 1	AXN	TYP	134	134.T.C 134.Y.V 134.P.c	2.0 1.5 0.8	d̪uːp	0	94	Beat:94
36020	138_beat	Beat	MEITHEI	MEITHEI	p’ū	p’ū	pʰ uː	mani1292	1665	24.4409	93.3426		1 7	AX	PY	95	95.P.C 95.Y.V	2.0 1.5	pʰuː	0	93	Beat:93
36021	138_beat	Beat	THADO	THADO	bē	bē	b eː	thad1238	1665	24.096	93.722		1 7	AX	PE	148	148.P.C 148.E.V	2.0 1.5	beː	0	93	Beat:93
36022	138_beat	Beat	THADO	THADO	vō	vō	v oː	thad1238	1665	24.096	93.722		3 7	AX	BU	148	148.B.C 148.U.V	2.0 1.5	voː	0	93	Beat:93
36023	138_beat	Beat	SIYIN	SIYIN	vāᵗ	vāᵗ	v ʌː t̪̚	siyi1240	1665	23.8192	93.6884		3 7 1	AXN	BET	136	136.B.C 136.E.V 136.T.c	2.0 1.5 0.8	vʌːt̪̚	0	109	Beat:109
36024	138_beat	Beat	LAI	LAI	veᵗ	veᵗ	v e t̪̚	haka1240	1665	22.8735	92.8208		3 7 1	AXN	BET	74	74.B.C 74.E.V 74.T.c	2.0 1.5 0.8	vet̪̚	0	95	Beat:95
36025	138_beat	Beat	LUSHEI	LUSHEI	vēl	vēl	v eː l	lush1249	1665	22.6138	92.6247		3 7 5	AXN	BEL	85	85.B.C 85.E.V 85.L.c	2.0 1.5 0.8	veːl	0	93	Beat:93
36026	138_beat	Beat	LUSHEI	LUSHEI	vua	vua	v u ʌ	lush1249	1665	22.6138	92.6247		3 7 7	AXZ	BYE	85	85.B.C 85.Y.V 85.E.V	2.0 1.5 0.8	vuʌ	0	95	Beat:95
36027	138_beat	Beat	BANJOGI	BANJOGI	vūak	vūak	v uː ʌ k	zotu1235	1665	22.5298	93.29		3 7 7 1	AXYN	BYEK	13	13.B.C 13.Y.V 13.E.V 13.K.c	2.0 1.5 1.3 0.8	vuːʌk	0	95	Beat:95
36028	138_beat	Beat	PANKHU	PANKHU	jel	jel	dʒ e l	pank1249	1665	22.6797	92.9461		1 7 5	AXN	TEL	112	112.T.C 112.E.V 112.L.c	2.0 1.5 0.8	dʒel	0	94	Beat:94
36029	138_beat	Beat	HRANGKHOL	HRANGKHOL	jēm	jēm	dʒ eː m	hran1239	1665	24.4559	93.351		1 7 4	AXN	TEM	51	51.T.C 51.E.V 51.M.c	2.0 1.5 0.8	dʒeːm	0	94	Beat:94
36030	138_beat	Beat	HALLAM	HALLAM	jem	jem	dʒ e m	fala1243	1665	23.7892833333	92.3254633333		1 7 4	AXN	TEM	47	47.T.C 47.E.V 47.M.c	2.0 1.5 0.8	dʒem	0	100	Beat:100
36031	138_beat	Beat	HALLAM	HALLAM	hem	hem	h e m	fala1243	1665	23.7892833333	92.3254633333		3 7 4	AXN	HEM	47	47.H.C 47.E.V 47.M.c	2.0 1.5 0.8	hem	0	100	Beat:100
36032	138_beat	Beat	LANGRONG	LANGRONG	θūk	θūk	θ uː k	lang1312	1665				3 7 1	AXN	DYK	77	77.D.C 77.Y.V 77.K.c	2.0 1.5 0.8	θuːk	0	107	Beat:107
36033	138_beat	Beat	LANGRONG	LANGRONG	hem	hem	h e m	lang1312	1665				3 7 4	AXN	HEM	77	77.H.C 77.E.V 77.M.c	2.0 1.5 0.8	hem	0	100	Beat:100
36034	138_beat	Beat	AIMOL	AIMOL	vē	vē	v eː	aimo1244	1665	24.6437	94.3556		3 7	AX	BE	2	2.B.C 2.E.V	2.0 1.5	veː	0	93	Beat:93
36035	138_beat	Beat	CHIRU	CHIRU	jēm	jēm	dʒ eː m	chir1283	1665	25.4643	94.4072		1 7 4	AXN	TEM	32	32.T.C 32.E.V 32.M.c	2.0 1.5 0.8	dʒeːm	0	94	Beat:94
36036	138_beat	Beat	KOLHRENG	KOLHRENG	wēl	wēl	w eː l	kolh1240	1665				6 7 5	AXN	WEL	67	67.W.C 67.E.V 67.L.c	2.0 1.5 0.8	weːl	0	95	Beat:95
36037	138_beat	Beat	KOM	KOM	wūk	wūk	w uː k	komi1270	1665	24.8688	94.534		6 7 1	AXN	WYK	68	68.W.C 68.Y.V 68.K.c	2.0 1.5 0.8	wuːk	0	95	Beat:95
36038	138_beat	Beat	PURUM	PURUM	wēl	wēl	w eː l	puru1266	1665	25.3887	95.0935		6 7 5	AXN	WEL	115	115.W.C 115.E.V 115.L.c	2.0 1.5 0.8	weːl	0	95	Beat:95
36039	138_beat	Beat	ANAL	ANAL	bon	bon	b o n̪	anal1239	1665	24.0506	94.2806		1 7 4	AXN	PUN	5	5.P.C 5.U.V 5.N.c	2.0 1.5 0.8	bon̪	0	93	Beat:93
36040	138_beat	Beat	ANAL	ANAL	kē	kē	k eː	anal1239	1665	24.0506	94.2806		1 7	AX	KE	5	5.K.C 5.E.V	2.0 1.5	keː	0	114	Beat:114
36041	138_beat	Beat	ANAL	ANAL	būm	būm	b uː m	anal1239	1665	24.0506	94.2806		1 7 4	AXN	PYM	5	5.P.C 5.Y.V 5.M.c	2.0 1.5 0.8	buːm	0	93	Beat:93
36042	138_beat	Beat	HIROILAMGANG	HIROI_LAMGANG	prai	prai	p r ai	lamk1238	1665	24.1523	94.2706		1 5 7	ACX	PRA	48	48.P.C 48.R.C 48.A.V	2.0 1.5 1.5	prai	0	97	Beat:97
36043	138_beat	Beat	TAUNGTHA	TAUNGTHA	wu	wu	w u	paok1235	1665	20.211	97.5969		6 7	AX	WY	143	143.W.C 143.Y.V	2.0 1.5	wu	0	95	Beat:95
36044	138_beat	Beat	CHINBOK	CHINBOK	t’àt (?)	t’àt	t̪ʰ a t̪	munc1235	1665	20.289	94.3929		1 7 1	AXN	TAT	29	29.T.C 29.A.V 29.T.c	2.0 1.5 0.8	t̪ʰat̪	0	94	Beat:94
36045	138_beat	Beat	YAWDWIN	YAWDWIN	t’ā	t’ā	t̪ʰ ʌː	munc1235	1665	20.289	94.3929		1 7	AX	TE	160	160.T.C 160.E.V	2.0 1.5	t̪ʰʌː	0	94	Beat:94
36046	138_beat	Beat	CHINBON	CHINBON	hmwei	hmwei	h m w ei	chin1478	1665	20.0776	94.0506		3 4 6 7	ACCX	HMWE	30	30.H.C 30.M.C 30.W.C 30.E.V	2.0 1.5 1.5 1.5	hmwei	0	101	Beat:101
36047	138_beat	Beat	CHINBON	CHINBON	twa	twa	t̪ w ʌ	chin1478	1665	20.0776	94.0506		1 6 7	ACX	TWE	30	30.T.C 30.W.C 30.E.V	2.0 1.5 1.5	t̪wʌ	0	94	Beat:94
36048	138_beat	Beat	THAYETMYOCHIN	THAYETMYO_CHIN	dai	dai	d̪ ai	thay1247	1665				1 7	AX	TA	150	150.T.C 150.A.V	2.0 1.5	d̪ai	0	94	Beat:94
36049	138_beat	Beat	SHOORKHYANG	SHO_OR_KHYANG	deṅ	deṅ	d̪ e ŋ	asho1236	1665	21.393	93.5069		1 7 4	AXN	TEN	132	132.T.C 132.E.V 132.N.c	2.0 1.5 0.8	d̪eŋ	0	94	Beat:94
36050	138_beat	Beat	KHAMI	KHAMI	pā-k’ā	pā-k’ā	p ʌː + kʰ ʌː	kham1284	1665				1 7 9 1 7	AX_AX	PE_KE	63	63.P.C 63.E.V 63._._ 63.K.C 63.E.V	2.0 1.5 0.0 2.0 1.5	pʌː+kʰʌː	0	93	Beat:93
36051	138_beat	Beat	ANDRO	ANDRO	tàn	tàn	t̪ a n̪	kadu1254	1665				1 7 4	AXN	TAN	6	6.T.C 6.A.V 6.N.c	2.0 1.5 0.8	t̪an̪	0	94	Beat:94
36052	138_beat	Beat	SENGMAI	SENGMAI	tàn	tàn	t̪ a n̪	kadu1254	1665				1 7 4	AXN	TAN	128	128.T.C 128.A.V 128.N.c	2.0 1.5 0.8	t̪an̪	0	94	Beat:94
36053	138_beat	Beat	CHAIREL	CHAIREL	d’ak	d’ak	d̪ʰ ʌ k	chai1254	1665	24.30438	93.866431		1 7 1	AXN	TEK	24	24.T.C 24.E.V 24.K.c	2.0 1.5 0.8	d̪ʰʌk	0	94	Beat:94
36054	138_beat	Beat	KADU	KADU	˨˩ tàṅ	tàṅ˨˩	t̪ a ŋ ²¹	kadu1254	1665				1 7 4 8	AXLT	TAN3	54	54.T.C 54.A.V 54.N.c 54.3.T	1.6 3.0 1.1 1.0	t̪aŋ²¹	0	94	Beat:94
36055	138_beat	Beat	SZIORATSI	SZI_OR_ATSI	nu	nu	n̪ u	zaiw1241	1665	24.1726	98.3643		4 7	AX	NY	139	139.N.C 139.Y.V	2.0 1.5	n̪u	0	100	Beat:100
36056	138_beat	Beat	MARU	MARU	be	be	b e	maru1249	1665	24.942535	99.8338		1 7	AX	PE	94	94.P.C 94.E.V	2.0 1.5	be	0	93	Beat:93
36057	138_beat	Beat	MAINGTHAORNGACHANG	MAINGTHA_OR_NGACHANG	tà	tà	t̪ a	acha1249	1665	24.3479	97.7438		1 7	AX	TA	87	87.T.C 87.A.V	2.0 1.5	t̪a	0	94	Beat:94
36058	138_beat	Beat	PHUNSAMONG	PHUN_SAMONG	di	di	d̪ i	hpon1238	1665	24.4606	97.1142		1 7	AX	TI	114	114.T.C 114.I.V	2.0 1.5	d̪i	0	94	Beat:94
36060	138_beat	Beat	MRU	MRU	tēp	tēp	t̪ eː p	mruu1242	1665	24.154	90.6317		1 7 1	AXN	TEP	104	104.T.C 104.E.V 104.P.c	2.0 1.5 0.8	t̪eːp	0	102	Beat:102
36061	138_beat	Beat	BURMESEWRITTEN	BURMESE_WRITTEN	ruik	ruik	r u i k	nucl1310	1665	20.7926	93.9665		5 7 7 1	AXYN	RYIK	21	21.R.C 21.Y.V 21.I.V 21.K.c	2.0 1.5 1.3 0.8	ruik	0	99	Beat:99
36062	138_beat	Beat	BURMESESPOKEN	BURMESE_SPOKEN	yaiᵏ	yaiᵏ	j ai k̚	nucl1310	1665	20.7926	93.9665		6 7 1	AXN	JAK	20	20.J.C 20.A.V 20.K.c	2.0 1.5 0.8	jaik̚	0	99	Beat:99
36063	138_beat	Beat	ARAKANESE	ARAKANESE	θet	θet	θ e t̪	marm1234	1665	22.759948	92.210748		3 7 1	AXN	DET	9	9.D.C 9.E.V 9.T.c	2.0 1.5 0.8	θet̪	0	94	Beat:94
36064	138_beat	Beat	ARAKANESE	ARAKANESE	raik	raik	r ai k	marm1234	1665	22.759948	92.210748		5 7 1	AXN	RAK	9	9.R.C 9.A.V 9.K.c	2.0 1.5 0.8	raik	0	99	Beat:99
36065	138_beat	Beat	TAUNGYO	TAUNGYO	ràt	ràt	r a t̪	taun1248	1665	20.4104	96.7401		5 7 1	AXN	RAT	145	145.R.C 145.A.V 145.T.c	2.0 1.5 0.8	rat̪	0	109	Beat:109
36066	138_beat	Beat	DANU	DANU	yaiᵏ	yaiᵏ	j ai k̚	danu1251	1665				6 7 1	AXN	JAK	35	35.J.C 35.A.V 35.K.c	2.0 1.5 0.8	jaik̚	0	99	Beat:99
36067	138_beat	Beat	INTHA	INTHA	raik	raik	r ai k	inth1239	1665				5 7 1	AXN	RAK	52	52.R.C 52.A.V 52.K.c	2.0 1.5 0.8	raik	0	99	Beat:99
36068	138_beat	Beat	TAVOYAN	TAVOYAN	yaiᵏ	yaiᵏ	j ai k̚	tavo1242	1665	14.1078	98.194		6 7 1	AXN	JAK	146	146.J.C 146.A.V 146.K.c	2.0 1.5 0.8	jaik̚	0	99	Beat:99
21309	109_before	Before	MANDARIN	MANDARIN	˨ ch’yen	ch’yen˨	tɕʰ j e n ²	mand1415	1882	40.0209	116.228		2 6 7 4 8	ACXLT	CJEN6	89	89.C.C 89.J.C 89.E.V 89.N.c 89.6.T	1.6 1.2 3.0 1.1 1.0	tɕʰjen²	0	129	Before:129
21310	109_before	Before	CANTONESE	CANTONESE	˨ tsīn	tsīn˨	ts iː n̪ ²	cant1236	1882				2 7 4 8	AXLT	CIN6	23	23.C.C 23.I.V 23.N.c 23.6.T	1.6 3.0 1.1 1.0	tsiːn̪²	0	129	Before:129
21311	109_before	Before	CANTONESE	CANTONESE	˨ ts’īn ˨˩ min	ts’īn˨min˨˩	tsʰ iː n̪ ² + m i n̪ ²¹	cant1236	1882				2 7 4 8 9 4 7 4 8	AXLT_AXLT	CIN6_MIN3	23	23.C.C 23.I.V 23.N.c 23.6.T 23._._ 23.M.C 23.I.V 23.N.c 23.3.T	1.6 3.0 1.1 1.0 0.0 1.6 3.0 1.1 1.0	tsʰiːn̪²+min̪²¹	0	129	Before:129
21312	109_before	Before	CANTONESE	CANTONESE	˨ ts’īn ˨˩ pīn	ts’īn˨pīn˨˩	tsʰ iː n̪ ² + p iː n̪ ²¹	cant1236	1882				2 7 4 8 9 1 7 4 8	AXLT_AXLT	CIN6_PIN3	23	23.C.C 23.I.V 23.N.c 23.6.T 23._._ 23.P.C 23.I.V 23.N.c 23.3.T	1.6 3.0 1.1 1.0 0.0 1.6 3.0 1.1 1.0	tsʰiːn̪²+piːn̪²¹	0	129	Before:129
21321	109_before	Before	PWOLITERARY	PWO_LITERARY	˦ mē° ˨ ya	mē°˦ya˨	m eː ⁴ + j ʌ ²	phra1235	1882	18.0048	99.6382		4 7 8 9 6 7 8	AXT_AXT	ME6_JE6	117	117.M.C 117.E.V 117.6.T 117._._ 117.J.C 117.E.V 117.6.T	1.6 3.0 1.0 0.0 1.6 3.0 1.0	meː⁴+jʌ²	0	161	Before:161
21322	109_before	Before	PWOBASSEIN	PWO_BASSEIN	l^à yà	l^à yà	l a + j a	pwow1235	1882	17.3622	97.7044		5 7 9 6 7	AX_AX	LA_JA	116	116.L.C 116.A.V 116._._ 116.J.C 116.A.V	2.0 1.5 0.0 2.0 1.5	la+ja	0	119	Before:119
21323	109_before	Before	PWOMAULMEIN	PWO_MAULMEIN	l^à yà	l^à yà	l a + j a	pwoe1235	1882	15.1915	98.7355		5 7 9 6 7	AX_AX	LA_JA	118	118.L.C 118.A.V 118._._ 118.J.C 118.A.V	2.0 1.5 0.0 2.0 1.5	la+ja	0	119	Before:119
21324	109_before	Before	TAUNGTHU	TAUNGTHU	sà ṅà	sà ṅà	s a + ŋ a	paok1235	1882	20.211	97.5969		3 7 9 4 7	AX_AX	SA_NA	144	144.S.C 144.A.V 144._._ 144.N.C 144.A.V	2.0 1.5 0.0 2.0 1.5	sa+ŋa	0	119	Before:119
21325	109_before	Before	SGALITERARY	SGA_LITERARY	˧ mä° ˧ ñā	mä°˧ñā˧	m ɛ ³ + ɲ ʌː ³	sgaw1245	1882	17.9872	97.7126		4 7 8 9 4 7 8	AXT_AXT	ME6_NE6	129	129.M.C 129.E.V 129.6.T 129._._ 129.N.C 129.E.V 129.6.T	1.6 3.0 1.0 0.0 1.6 3.0 1.0	mɛ³+ɲʌː³	0	161	Before:161
21326	109_before	Before	SGALITERARY	SGA_LITERARY	˧ lö ˧ ñā	lö˧ñā˧	l ø ³ + ɲ ʌː ³	sgaw1245	1882	17.9872	97.7126		5 7 8 9 4 7 8	AXT_AXT	LU6_NE6	129	129.L.C 129.U.V 129.6.T 129._._ 129.N.C 129.E.V 129.6.T	1.6 3.0 1.0 0.0 1.6 3.0 1.0	lø³+ɲʌː³	0	161	Before:161
21327	109_before	Before	SGASPOKEN	SGA_SPOKEN	mä ñà	mä ñà	m ɛ + ɲ a	sgaw1245	1882	17.9872	97.7126		4 7 9 4 7	AX_AX	ME_NA	130	130.M.C 130.E.V 130._._ 130.N.C 130.A.V	2.0 1.5 0.0 2.0 1.5	mɛ+ɲa	0	132	Before:132
21328	109_before	Before	BWE	BWE	lå må	lå må	l ɔ + m ɔ	bwek1238	1882	18.9796	96.9936		5 7 9 4 7	AX_AX	LU_MU	22	22.L.C 22.U.V 22._._ 22.M.C 22.U.V	2.0 1.5 0.0 2.0 1.5	lɔ+mɔ	0	131	Before:131
21329	109_before	Before	WEWAW	WEWAW	^àme ye	^àme ye	a m e + j e	wewa1238	1882	19.020577	96.540526		7 4 7 9 6 7	XBZ_AX	AME_JE	157	157.A.V 157.M.C 157.E.V 157._._ 157.J.C 157.E.V	1.5 1.75 0.8 0.0 2.0 1.5	ame+je	0	132	Before:132
21330	109_before	Before	KARENBYU	KARENBYU	^àu su	^àu su	a u + s u	geba1237	1882	19.4991	96.9492		7 7 9 3 7	XZ_AX	AY_SY	58	58.A.V 58.Y.V 58._._ 58.S.C 58.Y.V	1.5 0.8 0.0 2.0 1.5	au+su	0	141	Before:141
21331	109_before	Before	KARENNI	KARENNI	dö ñi	dö ñi	d̪ ø + ɲ i	east2342	1882	19.8939	98.3359		1 7 9 4 7	AX_AX	TU_NI	59	59.T.C 59.U.V 59._._ 59.N.C 59.I.V	2.0 1.5 0.0 2.0 1.5	d̪ø+ɲi	0	119	Before:119
21332	109_before	Before	YINTALAE	YINTALAE	dü ṅà	dü ṅà	d̪ y + ŋ a	yint1235	1882	18.9378	97.3368		1 7 9 4 7	AX_AX	TY_NA	162	162.T.C 162.Y.V 162._._ 162.N.C 162.A.V	2.0 1.5 0.0 2.0 1.5	d̪y+ŋa	0	119	Before:119
21333	109_before	Before	SINHMAOMAEPAUK	SIN_HMAO_MAEPAUK	à ri	à ri	a + r i	manu1255	1882	19.165	96.9531		7 9 5 7	X_AX	A_RI	135	135.A.V 135._._ 135.R.C 135.I.V	1.5 0.0 2.0 1.5	a+ri	0	123	Before:123
21334	109_before	Before	GHEKO	GHEKO	^àri	^àri	a r i	geko1235	1882	19.6741	96.5308		7 5 7	XBZ	ARI	43	43.A.V 43.R.C 43.I.V	1.5 1.75 0.8	ari	0	123	Before:123
21335	109_before	Before	PADAUNG	PADAUNG	^àre	^àre	a r e	kaya1315	1882	19.5183	97.4138		7 5 7	XBZ	ARE	110	110.A.V 110.R.C 110.E.V	1.5 1.75 0.8	are	0	123	Before:123
21336	109_before	Before	YEINBA	YEINBA	lü ṅà	lü ṅà	l y + ŋ a	yinb1236	1882	19.0383	97.2134		5 7 9 4 7	AX_AX	LY_NA	161	161.L.C 161.Y.V 161._._ 161.N.C 161.A.V	2.0 1.5 0.0 2.0 1.5	ly+ŋa	0	119	Before:119
21337	109_before	Before	MANOE	MANOE	dö tà ko	dö tà ko	d̪ ø + t̪ a + k o	manu1255	1882	19.165	96.9531		1 7 9 1 7 9 1 7	AX_AX_AX	TU_TA_KU	90	90.T.C 90.U.V 90._._ 90.T.C 90.A.V 90._._ 90.K.C 90.U.V	2.0 1.5 0.0 2.0 1.5 0.0 2.0 1.5	d̪ø+t̪a+ko	0	152	Before:152
21338	109_before	Before	ZAVEIN	ZAVEIN	à ṅà	à ṅà	a + ŋ a	zaye1235	1882	20.16	96.908		7 9 4 7	X_AX	A_NA	163	163.A.V 163._._ 163.N.C 163.A.V	1.5 0.0 2.0 1.5	a+ŋa	0	119	Before:119
21339	109_before	Before	ZAVEIN	ZAVEIN	min-yà	min-yà	m i n̪ + j a	zaye1235	1882	20.16	96.908		4 7 4 9 6 7	AXN_AX	MIN_JA	163	163.M.C 163.I.V 163.N.c 163._._ 163.J.C 163.A.V	2.0 1.5 0.8 0.0 2.0 1.5	min̪+ja	0	132	Before:132
21340	109_before	Before	ZAVEIN	ZAVEIN	le kyi	le kyi	l e + kʲ i	zaye1235	1882	20.16	96.908		5 7 9 1 7	AX_AX	LE_KI	163	163.L.C 163.E.V 163._._ 163.K.C 163.I.V	2.0 1.5 0.0 2.0 1.5	le+kʲi	0	119	Before:119
21341	109_before	Before	MOPWABILICHI	MOPWA_BILICHI	^àm lo	^àm lo	a m + l o	bili1249	1882				7 4 9 5 7	XN_AX	AM_LU	100	100.A.V 100.M.c 100._._ 100.L.C 100.U.V	1.5 0.8 0.0 2.0 1.5	am+lo	0	140	Before:140
21342	109_before	Before	MOPWADERMUHA	MOPWA_DERMUHA	à mi lå	à mi lå	a + m i + l ɔ	derm1238	1882				7 9 4 7 9 5 7	X_AX_AX	A_MI_LU	101	101.A.V 101._._ 101.M.C 101.I.V 101._._ 101.L.C 101.U.V	1.5 0.0 2.0 1.5 0.0 2.0 1.5	a+mi+lɔ	0	154	Before:154
21349	109_before	Before	MANCHATIORPATNI	MANCHATI_OR_PATNI	tuï	tuï	t̪ u ɪ	karb1241	1882	25.7317	93.0462		1 7 7	AXZ	TYI	88	88.T.C 88.Y.V 88.I.V	2.0 1.5 0.8	t̪uɪ	0	125	Before:125
21350	109_before	Before	MANCHATIORPATNI	MANCHATI_OR_PATNI	kachaṅ	kachaṅ	k ʌ tʃ ʌ ŋ	karb1241	1882	25.7317	93.0462		1 7 1 7 4	AXBYN	KETEN	88	88.K.C 88.E.V 88.T.C 88.E.V 88.N.c	2.0 1.5 1.75 1.3 0.8	kʌtʃʌŋ	0	176	Before:176
21351	109_before	Before	CHAMBALAHULI	CHAMBA_LAHULI	tūri	tūri	t̪ uː r i	cham1308	1882				1 7 5 7	AXBZ	TYRI	25	25.T.C 25.Y.V 25.R.C 25.I.V	2.0 1.5 1.75 0.8	t̪uːri	0	123	Before:123
21352	109_before	Before	KANASHI	KANASHI	āgraṅ	āgraṅ	ʌː g r ʌ ŋ	kana1283	1882	32.2843	77.1553		7 1 5 7 4	XBCYN	EKREN	56	56.E.V 56.K.C 56.R.C 56.E.V 56.N.c	1.5 1.75 1.5 1.3 0.8	ʌːgrʌŋ	0	122	Before:122
21353	109_before	Before	KANASHI	KANASHI	mandris	mandris	m ʌ n̪ d̪ r i s	kana1283	1882	32.2843	77.1553		4 7 4 1 5 7 3	AXMBCYN	MENTRIS	56	56.M.C 56.E.V 56.N.c 56.T.C 56.R.C 56.I.V 56.S.c	2.0 1.5 1.1 1.75 1.5 1.3 0.8	mʌn̪d̪ris	0	175	Before:175
21354	109_before	Before	KANAURI	KANAURI	oms	oms	o m s	kinn1249	1882	31.3688	78.3148		7 4 3	XLN	UMS	57	57.U.V 57.M.c 57.S.c	1.5 1.1 0.8	oms	0	140	Before:140
21355	109_before	Before	KANAURI	KANAURI	oms-kō	oms-kō	o m s + k oː	kinn1249	1882	31.3688	78.3148		7 4 3 9 1 7	XLN_AX	UMS_KU	57	57.U.V 57.M.c 57.S.c 57._._ 57.K.C 57.U.V	1.5 1.1 0.8 0.0 2.0 1.5	oms+koː	0	140	Before:140
21356	109_before	Before	RANGKAS	RANGKAS	gān-šyū	gān-šyū	g ʌː n̪ + ʃ j uː	rang1266	1882	29.2278	80.0845		1 7 4 9 3 6 7	AXN_ACX	KEN_SJY	121	121.K.C 121.E.V 121.N.c 121._._ 121.S.C 121.J.C 121.Y.V	2.0 1.5 0.8 0.0 2.0 1.5 1.5	gʌːn̪+ʃjuː	0	164	Before:164
21357	109_before	Before	DHIMAL	DHIMAL	låṅ	låṅ	l ɔ ŋ	dhim1246	1882	26.6283	88.3798		5 7 4	AXN	LUN	37	37.L.C 37.U.V 37.N.c	2.0 1.5 0.8	lɔŋ	0	136	Before:136
21358	109_before	Before	DHIMAL	DHIMAL	låm-på	låm-på	l ɔ m + p ɔ	dhim1246	1882	26.6283	88.3798		5 7 4 9 1 7	AXN_AX	LUM_PU	37	37.L.C 37.U.V 37.M.c 37._._ 37.P.C 37.U.V	2.0 1.5 0.8 0.0 2.0 1.5	lɔm+pɔ	0	174	Before:174
21359	109_before	Before	THAMI	THAMI	hā-bi	hā-bi	h ʌː + b i	than1259	1882	28.7554	85.7657		3 7 9 1 7	AX_AX	HE_PI	149	149.H.C 149.E.V 149._._ 149.P.C 149.I.V	2.0 1.5 0.0 2.0 1.5	hʌː+bi	0	156	Before:156
21360	109_before	Before	LIMBU	LIMBU	tō-gaṅ	tō-gaṅ	t̪ oː + g ʌ ŋ	limb1266	1882	27.2703	87.8859		1 7 9 1 7 4	AX_AXN	TU_KEN	79	79.T.C 79.U.V 79._._ 79.K.C 79.E.V 79.N.c	2.0 1.5 0.0 2.0 1.5 0.8	t̪oː+gʌŋ	0	146	Before:146
21361	109_before	Before	YAKHA	YAKHA	ā-t’um	ā-t’um	ʌː + t̪ʰ u m	yakk1236	1882	27.3714	87.9306		7 9 1 7 4	X_AXN	E_TYM	159	159.E.V 159._._ 159.T.C 159.Y.V 159.M.c	1.5 0.0 2.0 1.5 0.8	ʌː+t̪ʰum	0	125	Before:125
21362	109_before	Before	KHAMBU	KHAMBU	lais-pi	lais-pi	l ai s + p i	kham1288	1882				5 7 3 9 1 7	AXN_AX	LAS_PI	62	62.L.C 62.A.V 62.S.c 62._._ 62.P.C 62.I.V	2.0 1.5 0.8 0.0 2.0 1.5	lais+pi	0	142	Before:142
21363	109_before	Before	BAHING	BAHING	ṅalla	ṅalla	ŋ ʌ l l ʌ	bahi1252	1882	27.3323	86.3949		4 7 5 5 7	AXMBZ	NELLE	10	10.N.C 10.E.V 10.L.c 10.L.C 10.E.V	2.0 1.5 1.1 1.75 0.8	ŋʌllʌ	0	124	Before:124
21364	109_before	Before	RAIORJIMDAR	RAI_OR_JIMDAR	lal-bu	lal-bu	l ʌ l + b u	athp1241	1882	26.8794	87.3296		5 7 5 9 1 7	AXN_AX	LEL_PY	120	120.L.C 120.E.V 120.L.c 120._._ 120.P.C 120.Y.V	2.0 1.5 0.8 0.0 2.0 1.5	lʌl+bu	0	163	Before:163
21365	109_before	Before	VAYUORHAYU	VAYU_OR_HAYU	hon-ko	hon-ko	h o n̪ + k o	wayu1241	1882	27.3047	86.1227		3 7 4 9 1 7	AXN_AX	HUN_KU	155	155.H.C 155.U.V 155.N.c 155._._ 155.K.C 155.U.V	2.0 1.5 0.8 0.0 2.0 1.5	hon̪+ko	0	128	Before:128
21366	109_before	Before	GURUNG	GURUNG	nin-hundi	nin-hundi	n̪ i n̪ + h u n̪ d̪ i	east2345	1882	28.4368	84.58145		4 7 4 9 3 7 4 1 7	AXN_AXMBZ	NIN_HYNTI	44	44.N.C 44.I.V 44.N.c 44._._ 44.H.C 44.Y.V 44.N.c 44.T.C 44.I.V	2.0 1.5 0.8 0.0 2.0 1.5 1.1 1.75 0.8	n̪in̪+hun̪d̪i	0	128	Before:128
21367	109_before	Before	MURMI	MURMI	g’ā-ch’ā	g’ā-ch’ā	gʰ ʌː + tʃʰ ʌː	west2415	1882	28.0239	85.0563		1 7 9 1 7	AX_AX	KE_TE	105	105.K.C 105.E.V 105._._ 105.T.C 105.E.V	2.0 1.5 0.0 2.0 1.5	gʰʌː+tʃʰʌː	0	157	Before:157
21368	109_before	Before	SUNWAR	SUNWAR	ṅuiṅ-ti	ṅuiṅ-ti	ŋ u i ŋ + t̪ i	sunw1242	1882	27.5201	86.2476		4 7 7 4 9 1 7	AXYN_AX	NYIN_TI	138	138.N.C 138.Y.V 138.I.V 138.N.c 138._._ 138.T.C 138.I.V	2.0 1.5 1.3 0.8 0.0 2.0 1.5	ŋuiŋ+t̪i	0	128	Before:128
21369	109_before	Before	MAGARI	MAGARI	ag’er-lak	ag’er-lak	ʌ gʰ e r + l ʌ k	west2418	1882	28.2462	83.511		7 1 7 5 9 5 7 1	XBYN_AXN	EKER_LEK	86	86.E.V 86.K.C 86.E.V 86.R.c 86._._ 86.L.C 86.E.V 86.K.c	1.5 1.75 1.3 0.8 0.0 2.0 1.5 0.8	ʌgʰer+lʌk	0	150	Before:150
21370	109_before	Before	NEWARI	NEWARI	hneone	hneone	h n̪ e o n̪ e	newa1246	1882	27.2614	84.9577		3 4 7 7 4 7	ACXYBZ	HNEUNE	108	108.H.C 108.N.C 108.E.V 108.U.V 108.N.C 108.E.V	2.0 1.5 1.5 1.3 1.75 0.8	hn̪eon̪e	0	158	Before:158
21371	109_before	Before	NEWARI	NEWARI	hnā-pā	hnā-pā	h n̪ ʌː + p ʌː	newa1246	1882	27.2614	84.9577		3 4 7 9 1 7	ACX_AX	HNE_PE	108	108.H.C 108.N.C 108.E.V 108._._ 108.P.C 108.E.V	2.0 1.5 1.5 0.0 2.0 1.5	hn̪ʌː+pʌː	0	156	Before:156
21372	109_before	Before	PADIPAHRIORPAHI	PADI_PAHRI_OR_PAHI	hnor-k’e	hnor-k’e	h n̪ o r + kʰ e	newa1246	1882	27.2614	84.9577		3 4 7 5 9 1 7	ACXN_AX	HNUR_KE	111	111.H.C 111.N.C 111.U.V 111.R.c 111._._ 111.K.C 111.E.V	2.0 1.5 1.5 0.8 0.0 2.0 1.5	hn̪or+kʰe	0	159	Before:159
21373	109_before	Before	RONGORLEPCHA	RONG_OR_LEPCHA	nahān	nahān	n̪ ʌ h ʌː n̪	lepc1244	1882	27.0869	88.5726		4 7 3 7 4	AXBYN	NEHEN	124	124.N.C 124.E.V 124.H.C 124.E.V 124.N.c	2.0 1.5 1.75 1.3 0.8	n̪ʌhʌːn̪	0	165	Before:165
21374	109_before	Before	TOTO	TOTO	dōṅāṅtā	dōṅāṅtā	d̪ oː ŋ ʌː ŋ t̪ ʌː	toto1302	1882	26.67	88.975		1 7 4 7 4 1 7	AXBYMBZ	TUNENTE	154	154.T.C 154.U.V 154.N.C 154.E.V 154.N.c 154.T.C 154.E.V	2.0 1.5 1.75 1.3 1.1 1.75 0.8	d̪oːŋʌːŋt̪ʌː	0	125	Before:125
21376	109_before	Before	ABOR	ABOR	kē-rā-pü	kē-rā-pü	k eː + r ʌː + p y	bori1243	1882	27.62812	94.3538		1 7 9 5 7 9 1 7	AX_AX_AX	KE_RE_PY	1	1.K.C 1.E.V 1._._ 1.R.C 1.E.V 1._._ 1.P.C 1.Y.V	2.0 1.5 0.0 2.0 1.5 0.0 2.0 1.5	keː+rʌː+py	0	117	Before:117
21377	109_before	Before	MIRI	MIRI	kē-rā-pü	kē-rā-pü	k eː + r ʌː + p y	misi1242	1882	27.418	94.69		1 7 9 5 7 9 1 7	AX_AX_AX	KE_RE_PY	98	98.K.C 98.E.V 98._._ 98.R.C 98.E.V 98._._ 98.P.C 98.Y.V	2.0 1.5 0.0 2.0 1.5 0.0 2.0 1.5	keː+rʌː+py	0	117	Before:117
