ID	PARAMETER_ID	CONCEPT	DOCULECT	LANGUAGE_NAME	VALUE	FORM	TOKENS	GLOTTOLOG	CONCEPTICON	LATITUDE	LONGITUDE	COGNACY	SONARS	PROSTRINGS	CLASSES	LANGID	NUMBERS	WEIGHTS	IPA	DUPLICATES	SCAID	INFERRED_CLASS
23284	114_and	And	CANTONESE	CANTONESE	˨˩ k’aᵖ	˨˩ k’aᵖ	²¹ + kʱ ʌ p̚	cant1236					8 9 1 7 1	T_AXN	3_KEP	21	21.3.T 21._._ 21.K.C 21.E.V 21.P.c	1.0 0.0 1.6 3.0 0.5	²¹+kʱʌp̚	0	9	And:9
23296	114_and	And	PWOLITERARY	PWO_LITERARY	˧ dai	˧ dai	³ + d̪ ai	phra1235		18.0048	99.6382		8 9 1 7	T_AX	6_TA	114	114.6.T 114._._ 114.T.C 114.A.V	1.0 0.0 1.6 3.0	³+d̪ai	0	7	And:7
23297	114_and	And	PWOLITERARY	PWO_LITERARY	˦ då	˦ då	⁴ + d̪ ɔ	phra1235		18.0048	99.6382		8 9 1 7	T_AX	6_TU	114	114.6.T 114._._ 114.T.C 114.U.V	1.0 0.0 1.6 3.0	⁴+d̪ɔ	0	7	And:7
23298	114_and	And	PWOBASSEIN	PWO_BASSEIN	dä	dä	d̪ ɛ	pwow1235		17.3622	97.7044		1 7	AX	TE	113	113.T.C 113.E.V	2.0 1.5	d̪ɛ	0	7	And:7
23299	114_and	And	PWOMAULMEIN	PWO_MAULMEIN	dä	dä	d̪ ɛ	pwoe1235		15.1915	98.7355		1 7	AX	TE	115	115.T.C 115.E.V	2.0 1.5	d̪ɛ	0	7	And:7
23300	114_and	And	TAUNGTHU	TAUNGTHU	tǒm	tǒm	t̪ ɒ m	paok1235		20.211	97.5969		1 7 4	AXN	TOM	140	140.T.C 140.O.V 140.M.c	2.0 1.5 0.8	t̪ɒm	0	7	And:7
23301	114_and	And	SGALITERARY	SGA_LITERARY	˦ då°	˦ då°	⁴ + d̪ ɔ +	sgaw1245		17.9872	97.7126		8 9 1 7 9	T_AX_	6_TU_	126	126.6.T 126._._ 126.T.C 126.U.V 126._._	1.0 0.0 1.6 3.0 0.0	⁴+d̪ɔ+	0	7	And:7
23303	114_and	And	BWE	BWE	gye	gye	gʲ e	bwek1238		18.9796	96.9936		1 7	AX	KE	20	20.K.C 20.E.V	2.0 1.5	gʲe	0	9	And:9
23304	114_and	And	BWE	BWE	kye (between nouns)	kye	kʲ e	bwek1238		18.9796	96.9936		1 7	AX	KE	20	20.K.C 20.E.V	2.0 1.5	kʲe	0	9	And:9
23305	114_and	And	BWE	BWE	lä (bet. phrases)	lä	l ɛ	bwek1238		18.9796	96.9936		5 7	AX	LE	20	20.L.C 20.E.V	2.0 1.5	lɛ	0	1	And:1
23306	114_and	And	WEWAW	WEWAW	då	då	d̪ ɔ	wewa1238		19.020577	96.540526		1 7	AX	TU	153	153.T.C 153.U.V	2.0 1.5	d̪ɔ	0	7	And:7
23307	114_and	And	KARENBYU	KARENBYU	ki	ki	k i	geba1237		19.4991	96.9492		1 7	AX	KI	56	56.K.C 56.I.V	2.0 1.5	ki	0	9	And:9
23308	114_and	And	BRAEO	BRAEO	då	då	d̪ ɔ	geba1237		19.4991	96.9492		1 7	AX	TU	18	18.T.C 18.U.V	2.0 1.5	d̪ɔ	0	7	And:7
23309	114_and	And	KARENNI	KARENNI	nà (between nouns)	nà	n̪ a	east2342		19.8939	98.3359		4 7	AX	NA	57	57.N.C 57.A.V	2.0 1.5	n̪a	0	3	And:3
23310	114_and	And	KARENNI	KARENNI	rå (bet. phrases)	rå	r ɔ	east2342		19.8939	98.3359		5 7	AX	RU	57	57.R.C 57.U.V	2.0 1.5	rɔ	0	1	And:1
23311	114_and	And	GHEKO	GHEKO	då	då	d̪ ɔ	geko1235		19.6741	96.5308		1 7	AX	TU	41	41.T.C 41.U.V	2.0 1.5	d̪ɔ	0	7	And:7
23312	114_and	And	PADAUNG	PADAUNG	då	då	d̪ ɔ	kaya1315		19.5183	97.4138		1 7	AX	TU	107	107.T.C 107.U.V	2.0 1.5	d̪ɔ	0	7	And:7
23313	114_and	And	YEINBA	YEINBA	lö (between nouns and phrases)	lö	l ø	yinb1236		19.0383	97.2134		5 7	AX	LU	157	157.L.C 157.U.V	2.0 1.5	lø	0	1	And:1
23314	114_and	And	MOPWABILICHI	MOPWA_BILICHI	lö	lö	l ø	bili1249					5 7	AX	LU	97	97.L.C 97.U.V	2.0 1.5	lø	0	1	And:1
23315	114_and	And	MOPWABILICHI	MOPWA_BILICHI	lä (between nouns)	lä	l ɛ	bili1249					5 7	AX	LE	97	97.L.C 97.E.V	2.0 1.5	lɛ	0	1	And:1
23316	114_and	And	MOPWABILICHI	MOPWA_BILICHI	då (bet. phrases)	då	d̪ ɔ	bili1249					1 7	AX	TU	97	97.T.C 97.U.V	2.0 1.5	d̪ɔ	0	7	And:7
23317	114_and	And	MOPWADERMUHA	MOPWA_DERMUHA	lö (between nouns and phrases)	lö	l ø	derm1238					5 7	AX	LU	98	98.L.C 98.U.V	2.0 1.5	lø	0	1	And:1
23323	114_and	And	MANCHATIORPATNI	MANCHATI_OR_PATNI	uï	uï	u ɪ	karb1241		25.7317	93.0462		7 7	XZ	YI	86	86.Y.V 86.I.V	1.5 0.8	uɪ	0	16	And:16
23324	114_and	And	MANCHATIORPATNI	MANCHATI_OR_PATNI	e	e	e	karb1241		25.7317	93.0462		7	X	E	86	86.E.V	1.5	e	0	14	And:14
23325	114_and	And	KANASHI	KANASHI	hed	hed	h e d̪	kana1283		32.2843	77.1553		3 7 1	AXN	HET	54	54.H.C 54.E.V 54.T.c	2.0 1.5 0.8	hed̪	0	6	And:6
23326	114_and	And	KANAURI	KANAURI	ai	ai	ai	kinn1249		31.3688	78.3148		7	X	A	55	55.A.V	1.5	ai	0	14	And:14
23327	114_and	And	RANGKAS	RANGKAS	gār	gār	g ʌː r	rang1266		29.2278	80.0845		1 7 5	AXN	KER	118	118.K.C 118.E.V 118.R.c	2.0 1.5 0.8	gʌːr	0	9	And:9
23328	114_and	And	RANGKAS	RANGKAS	gāṅr	gāṅr	g ʌː ŋ r	rang1266		29.2278	80.0845		1 7 4 5	AXBC	KENR	118	118.K.C 118.E.V 118.N.C 118.R.C	2.0 1.5 1.75 1.5	gʌːŋr	0	9	And:9
23329	114_and	And	DHIMAL	DHIMAL	ai-dauṅ (?)	ai-dauṅ	ai + d̪ au ŋ	dhim1246		26.6283	88.3798		7 9 1 7 4	X_AXN	A_TAN	35	35.A.V 35._._ 35.T.C 35.A.V 35.N.c	1.5 0.0 2.0 1.5 0.8	ai+d̪auŋ	0	7	And:7
23330	114_and	And	THAMI	THAMI	ani	ani	ʌ n̪ i	than1259		28.7554	85.7657		7 4 7	XBZ	ENI	145	145.E.V 145.N.C 145.I.V	1.5 1.75 0.8	ʌn̪i	0	3	And:3
23331	114_and	And	LIMBU	LIMBU	nū	nū	n̪ uː	limb1266		27.2703	87.8859		4 7	AX	NY	77	77.N.C 77.Y.V	2.0 1.5	n̪uː	0	3	And:3
23332	114_and	And	YAKHA	YAKHA	i-k’ok	i-k’ok	i + kʱ o k	yakk1236		27.3714	87.9306		7 9 1 7 1	X_AXN	I_KUK	155	155.I.V 155._._ 155.K.C 155.U.V 155.K.c	1.5 0.0 2.0 1.5 0.8	i+kʱok	0	9	And:9
23333	114_and	And	KHAMBU	KHAMBU	aiyāh	aiyāh	ai j ʌː h	kham1288					7 6 7 3	XBYN	AJEH	60	60.A.V 60.J.C 60.E.V 60.H.c	1.5 1.75 1.3 0.8	aijʌːh	0	10	And:10
23334	114_and	And	LAMBICHHONG	LAMBICHHONG	lā	lā	l ʌː	yakk1236		27.3714	87.9306		5 7	AX	LE	74	74.L.C 74.E.V	2.0 1.5	lʌː	0	1	And:1
23335	114_and	And	LAMBICHHONG	LAMBICHHONG	ch’ā	ch’ā	tʃʱ ʌː	yakk1236		27.3714	87.9306		1 7	AX	TE	74	74.T.C 74.E.V	2.0 1.5	tʃʱʌː	0	7	And:7
23336	114_and	And	WALING	WALING	ch’a	ch’a	tʃʱ ʌ	wali1261		26.6369	86.4837		1 7	AX	TE	152	152.T.C 152.E.V	2.0 1.5	tʃʱʌ	0	7	And:7
23337	114_and	And	CHHINGTANG	CHHINGTANG	yē	yē	j eː	chhi1245		26.961	87.1899		6 7	AX	JE	26	26.J.C 26.E.V	2.0 1.5	jeː	0	10	And:10
23338	114_and	And	CHHINGTANG	CHHINGTANG	naṅ	naṅ	n̪ ʌ ŋ	chhi1245		26.961	87.1899		4 7 4	AXN	NEN	26	26.N.C 26.E.V 26.N.c	2.0 1.5 0.8	n̪ʌŋ	0	3	And:3
23339	114_and	And	CHHINGTANG	CHHINGTANG	yāṅ	yāṅ	j ʌː ŋ	chhi1245		26.961	87.1899		6 7 4	AXN	JEN	26	26.J.C 26.E.V 26.N.c	2.0 1.5 0.8	jʌːŋ	0	10	And:10
23340	114_and	And	NACHHERENG	NACHHERENG	sa	sa	s ʌ	nach1240		27.4202	86.7001		3 7	AX	SE	103	103.S.C 103.E.V	2.0 1.5	sʌ	0	6	And:6
23341	114_and	And	NACHHERENG	NACHHERENG	lō	lō	l oː	nach1240		27.4202	86.7001		5 7	AX	LU	103	103.L.C 103.U.V	2.0 1.5	loː	0	1	And:1
23342	114_and	And	KULUNG	KULUNG	sō	sō	s oː	kulu1253		27.1606	87.5717		3 7	AX	SU	67	67.S.C 67.U.V	2.0 1.5	soː	0	6	And:6
23343	114_and	And	THULUNG	THULUNG	nuṅ	nuṅ	n̪ u ŋ	drun1238		28.00792	98.49449		4 7 4	AXN	NYN	148	148.N.C 148.Y.V 148.N.c	2.0 1.5 0.8	n̪uŋ	0	3	And:3
23344	114_and	And	THULUNG	THULUNG	bō	bō	b oː	drun1238		28.00792	98.49449		1 7	AX	PU	148	148.P.C 148.U.V	2.0 1.5	boː	0	8	And:8
23345	114_and	And	CHAURASYA	CHAURASYA	yē	yē	j eː	wamb1257		27.14808	86.47646		6 7	AX	JE	25	25.J.C 25.E.V	2.0 1.5	jeː	0	10	And:10
23346	114_and	And	RAIORJIMDAR	RAI_OR_JIMDAR	kāi	kāi	k aːi	athp1241		26.8794	87.3296		1 7	AX	KA	117	117.K.C 117.A.V	2.0 1.5	kaːi	0	9	And:9
23347	114_and	And	GURUNG	GURUNG	ra	ra	r ʌ	east2345		28.4368	84.58145		5 7	AX	RE	42	42.R.C 42.E.V	2.0 1.5	rʌ	0	1	And:1
23348	114_and	And	MURMI	MURMI	ra	ra	r ʌ	west2415		28.0239	85.0563		5 7	AX	RE	102	102.R.C 102.E.V	2.0 1.5	rʌ	0	1	And:1
23349	114_and	And	SUNWAR	SUNWAR	āni	āni	ʌː n̪ i	sunw1242		27.5201	86.2476		7 4 7	XBZ	ENI	134	134.E.V 134.N.C 134.I.V	1.5 1.75 0.8	ʌːn̪i	0	3	And:3
23350	114_and	And	MAGARI	MAGARI	ra	ra	r ʌ	west2418		28.2462	83.511		5 7	AX	RE	84	84.R.C 84.E.V	2.0 1.5	rʌ	0	1	And:1
23351	114_and	And	NEWARI	NEWARI	o	o	o	newa1246		27.2614	84.9577		7	X	U	105	105.U.V	1.5	o	0	14	And:14
23352	114_and	And	PADIPAHRIORPAHI	PADI_PAHRI_OR_PAHI	o	o	o	newa1246		27.2614	84.9577		7	X	U	108	108.U.V	1.5	o	0	14	And:14
23353	114_and	And	RONGORLEPCHA	RONG_OR_LEPCHA	un	un	u n̪	lepc1244		27.0869	88.5726		7 4	XN	YN	121	121.Y.V 121.N.c	1.5 0.8	un̪	0	10	And:10
23355	114_and	And	ABOR	ABOR	lāṅ	lāṅ	l ʌː ŋ	bori1243		27.62812	94.3538		5 7 4	AXN	LEN	1	1.L.C 1.E.V 1.N.c	2.0 1.5 0.8	lʌːŋ	0	1	And:1
23356	114_and	And	MIRI	MIRI	lāṅ	lāṅ	l ʌː ŋ	misi1242		27.418	94.69		5 7 4	AXN	LEN	95	95.L.C 95.E.V 95.N.c	2.0 1.5 0.8	lʌːŋ	0	1	And:1
23357	114_and	And	DAFLA	DAFLA	lā	lā	l ʌː	nyis1236		27.278263	93.675529		5 7	AX	LE	31	31.L.C 31.E.V	2.0 1.5	lʌː	0	1	And:1
23358	114_and	And	LOLONI	LOLO_NI	˦˨ nä	˦˨ nä	⁴² + n̪ ɛ	axiy1235		24.6009	103.713		8 9 4 7	T_AX	3_NE	81	81.3.T 81._._ 81.N.C 81.E.V	1.0 0.0 1.6 3.0	⁴²+n̪ɛ	0	3	And:3
23360	114_and	And	LOLOPHO	LOLO_PHO	˦˨ lä	˦˨ lä	⁴² + l ɛ	lagh1245		22.2674	103.929		8 9 5 7	T_AX	3_LE	82	82.3.T 82._._ 82.L.C 82.E.V	1.0 0.0 1.6 3.0	⁴²+lɛ	0	1	And:1
23361	114_and	And	AKAKA	A_KA_KA	nä̃	nä̃	n̪ ɛ̃	akha1245		21.2309	100.964		4 7	AX	NE	3	3.N.C 3.E.V	2.0 1.5	n̪ɛ̃	0	3	And:3
23362	114_and	And	LISU	LISU	ᵃ ˧ bye	ᵃ ˧ bye	ă + ³ + b j e	lisu1250		26.91	98.94		7 9 8 9 1 6 7	X_T_ACX	A_6_PJE	79	79.A.V 79._._ 79.6.T 79._._ 79.P.C 79.J.C 79.E.V	3.0 0.0 1.0 0.0 1.6 1.2 3.0	ă+³+bje	0	15	And:15
23363	114_and	And	LISHAOYAOYIN	LISHAO_YAOYIN	bä	bä	b ɛ	lisu1250		26.91	98.94		1 7	AX	PE	78	78.P.C 78.E.V	2.0 1.5	bɛ	0	8	And:8
23364	114_and	And	LAHU	LAHU	lä	lä	l ɛ	lahu1253		21.2701	100.214		5 7	AX	LE	71	71.L.C 71.E.V	2.0 1.5	lɛ	0	1	And:1
23365	114_and	And	BHOTIATIBETANWRITTEN	BHOTIA_TIBETAN_WRITTEN	daṅ	daṅ	d̪ ʌ ŋ	sikk1242		27.85795	88.59153		1 7 4	AXN	TEN	16	16.T.C 16.E.V 16.N.c	2.0 1.5 0.8	d̪ʌŋ	0	7	And:7
23367	114_and	And	BALTI	BALTI	naṅ	naṅ	n̪ ʌ ŋ	balt1258		34.4491	77.2859		4 7 4	AXN	NEN	12	12.N.C 12.E.V 12.N.c	2.0 1.5 0.8	n̪ʌŋ	0	3	And:3
23368	114_and	And	BALTI	BALTI	yaṅ	yaṅ	j ʌ ŋ	balt1258		34.4491	77.2859		6 7 4	AXN	JEN	12	12.J.C 12.E.V 12.N.c	2.0 1.5 0.8	jʌŋ	0	10	And:10
23369	114_and	And	BHOTIAOFPURIK	BHOTIA_OF_PURIK	naṅ	naṅ	n̪ ʌ ŋ	puri1258		34.3386	76.0127		4 7 4	AXN	NEN	15	15.N.C 15.E.V 15.N.c	2.0 1.5 0.8	n̪ʌŋ	0	3	And:3
23370	114_and	And	BHOTIAOFPURIK	BHOTIA_OF_PURIK	yaṅ	yaṅ	j ʌ ŋ	puri1258		34.3386	76.0127		6 7 4	AXN	JEN	15	15.J.C 15.E.V 15.N.c	2.0 1.5 0.8	jʌŋ	0	10	And:10
23371	114_and	And	BHOTIAOFPURIK	BHOTIA_OF_PURIK	daṅ	daṅ	d̪ ʌ ŋ	puri1258		34.3386	76.0127		1 7 4	AXN	TEN	15	15.T.C 15.E.V 15.N.c	2.0 1.5 0.8	d̪ʌŋ	0	7	And:7
23372	114_and	And	LADAKHI	LADAKHI	daṅ	daṅ	d̪ ʌ ŋ	lada1244		33.468	80.6013		1 7 4	AXN	TEN	69	69.T.C 69.E.V 69.N.c	2.0 1.5 0.8	d̪ʌŋ	0	7	And:7
23373	114_and	And	LADAKHI	LADAKHI	yaṅ	yaṅ	j ʌ ŋ	lada1244		33.468	80.6013		6 7 4	AXN	JEN	69	69.J.C 69.E.V 69.N.c	2.0 1.5 0.8	jʌŋ	0	10	And:10
23374	114_and	And	LADAKHIOFSPITI	LADAKHI_OF_SPITI	yaṅ	yaṅ	j ʌ ŋ	spit1240		32.526	77.833		6 7 4	AXN	JEN	70	70.J.C 70.E.V 70.N.c	2.0 1.5 0.8	jʌŋ	0	10	And:10
23375	114_and	And	KAGATE	KAGATE	yaṅ	yaṅ	j ʌ ŋ	kaga1252		27.4492	86.1675		6 7 4	AXN	JEN	53	53.J.C 53.E.V 53.N.c	2.0 1.5 0.8	jʌŋ	0	10	And:10
23376	114_and	And	SHARPA	SHARPA	ta-ruṅ	ta-ruṅ	t̪ ʌ + r u ŋ	sher1255		27.674	86.9994		1 7 9 5 7 4	AX_AXN	TE_RYN	127	127.T.C 127.E.V 127._._ 127.R.C 127.Y.V 127.N.c	2.0 1.5 0.0 2.0 1.5 0.8	t̪ʌ+ruŋ	0	12	And:12
23377	114_and	And	DANJONGKA	DANJONGKA	ta-ruṅ	ta-ruṅ	t̪ ʌ + r u ŋ	sikk1242		27.85795	88.59153		1 7 9 5 7 4	AX_AXN	TE_RYN	32	32.T.C 32.E.V 32._._ 32.R.C 32.Y.V 32.N.c	2.0 1.5 0.0 2.0 1.5 0.8	t̪ʌ+ruŋ	0	12	And:12
23378	114_and	And	HLOKE	HLOKE	ta-ru-ra	ta-ru-ra	t̪ ʌ + r u + r ʌ	lowa1242		29.0324	83.8959		1 7 9 5 7 9 5 7	AX_AX_AX	TE_RY_RE	47	47.T.C 47.E.V 47._._ 47.R.C 47.Y.V 47._._ 47.R.C 47.E.V	2.0 1.5 0.0 2.0 1.5 0.0 2.0 1.5	t̪ʌ+ru+rʌ	0	12	And:12
23379	114_and	And	BODOORBARA	BODO_OR_BARA	bǔ	bǔ	b ŏ	bodo1269		26.1	92.0		1 7	AX	PU	17	17.P.C 17.U.V	2.0 1.5	bŏ	0	8	And:8
23380	114_and	And	DEURICHUTIYA	DEURI_CHUTIYA	arke	arke	ʌ r k e	deor1238		26.86152	93.70572		7 5 1 7	XMBZ	ERKE	34	34.E.V 34.R.c 34.K.C 34.E.V	1.5 1.1 1.75 0.8	ʌrke	0	9	And:9
23381	114_and	And	ANGAMI	ANGAMI	mu	mu	m u	anga1288		25.6841	93.8668		4 7	AX	MY	7	7.M.C 7.Y.V	2.0 1.5	mu	0	5	And:5
23382	114_and	And	ANGAMI	ANGAMI	ri	ri	r i	anga1288		25.6841	93.8668		5 7	AX	RI	7	7.R.C 7.I.V	2.0 1.5	ri	0	1	And:1
23383	114_and	And	SEMA	SEMA	-ṅwo	-ṅwo	+ ŋ w o	sumi1235		25.9996	94.4235		9 4 6 7	_ACX	_NWU	124	124._._ 124.N.C 124.W.C 124.U.V	0.0 2.0 1.5 1.5	+ŋwo	0	3	And:3
23384	114_and	And	SEMA	SEMA	eno	eno	e n̪ o	sumi1235		25.9996	94.4235		7 4 7	XBZ	ENU	124	124.E.V 124.N.C 124.U.V	1.5 1.75 0.8	en̪o	0	3	And:3
23385	114_and	And	SEMA	SEMA	ino	ino	i n̪ o	sumi1235		25.9996	94.4235		7 4 7	XBZ	INU	124	124.I.V 124.N.C 124.U.V	1.5 1.75 0.8	in̪o	0	3	And:3
23386	114_and	And	RENGMA	RENGMA	tsonā-i	tsonā-i	ts o n̪ ʌː + i	nort2725		26.4492	94.5683		2 7 4 7 9 7	AXBZ_X	CUNE_I	119	119.C.C 119.U.V 119.N.C 119.E.V 119._._ 119.I.V	2.0 1.5 1.75 0.8 0.0 1.5	tson̪ʌː+i	0	3	And:3
23387	114_and	And	KEZAMA	KEZAMA	yi	yi	j i	khez1235		25.7078	94.3114		6 7	AX	JI	58	58.J.C 58.I.V	2.0 1.5	ji	0	10	And:10
23388	114_and	And	SOPVOMA	SOPVOMA	oṅē	oṅē	o ŋ eː	maon1238		25.3836	94.0035		7 4 7	XBZ	UNE	133	133.U.V 133.N.C 133.E.V	1.5 1.75 0.8	oŋeː	0	3	And:3
23389	114_and	And	AO	AO	āseir	āseir	ʌː s ei r	aona1235		26.3241	94.3824		7 3 7 5	XBYN	ESER	8	8.E.V 8.S.C 8.E.V 8.R.c	1.5 1.75 1.3 0.8	ʌːseir	0	6	And:6
23390	114_and	And	HLOTA	HLOTA	nā	nā	n̪ ʌː	loth1237		26.01396	94.04355		4 7	AX	NE	48	48.N.C 48.E.V	2.0 1.5	n̪ʌː	0	3	And:3
23391	114_and	And	HLOTA	HLOTA	sūhā	sūhā	s uː h ʌː	loth1237		26.01396	94.04355		3 7 3 7	AXBZ	SYHE	48	48.S.C 48.Y.V 48.H.C 48.E.V	2.0 1.5 1.75 0.8	suːhʌː	0	6	And:6
23392	114_and	And	THUKUMI	THUKUMI	apunu	apunu	ʌ p u n̪ u	sang1321		25.8581	94.6279		7 1 7 4 7	XBYBZ	EPYNY	147	147.E.V 147.P.C 147.Y.V 147.N.C 147.Y.V	1.5 1.75 1.3 1.75 0.8	ʌpun̪u	0	3	And:3
23393	114_and	And	YACHUMI	YACHUMI	a-ṅibēyā	a-ṅibēyā	ʌ + ŋ i b eː j ʌː	yimc1240		25.7675	94.8087		7 9 4 7 1 7 6 7	X_AXBYBZ	E_NIPEJE	154	154.E.V 154._._ 154.N.C 154.I.V 154.P.C 154.E.V 154.J.C 154.E.V	1.5 0.0 2.0 1.5 1.75 1.3 1.75 0.8	ʌ+ŋibeːjʌː	0	17	And:17
23394	114_and	And	TAMLU	TAMLU	ma	ma	m ʌ	phom1236		26.4715	94.7476		4 7	AX	ME	137	137.M.C 137.E.V	2.0 1.5	mʌ	0	5	And:5
23395	114_and	And	CHANG	CHANG	tokē	tokē	t̪ o k eː	chan1313		26.4336	94.9536		1 7 1 7	AXBZ	TUKE	24	24.T.C 24.U.V 24.K.C 24.E.V	2.0 1.5 1.75 0.8	t̪okeː	0	7	And:7
23396	114_and	And	KABUI	KABUI	ā-kum-nā	ā-kum-nā	ʌː + k u m + n̪ ʌː	rong1266		25.098	93.7869		7 9 1 7 4 9 4 7	X_AXN_AX	E_KYM_NE	51	51.E.V 51._._ 51.K.C 51.Y.V 51.M.c 51._._ 51.N.C 51.E.V	1.5 0.0 2.0 1.5 0.8 0.0 2.0 1.5	ʌː+kum+n̪ʌː	0	11	And:11
23397	114_and	And	MIKIR	MIKIR	ānsi	ānsi	ʌː n̪ s i	karb1241		25.7317	93.0462		7 4 3 7	XMBZ	ENSI	94	94.E.V 94.N.c 94.S.C 94.I.V	1.5 1.1 1.75 0.8	ʌːn̪si	0	6	And:6
23398	114_and	And	MIKIR	MIKIR	pen	pen	p e n̪	karb1241		25.7317	93.0462		1 7 4	AXN	PEN	94	94.P.C 94.E.V 94.N.c	2.0 1.5 0.8	pen̪	0	8	And:8
23399	114_and	And	MIKIR	MIKIR	ā-kō	ā-kō	ʌː + k oː	karb1241		25.7317	93.0462		7 9 1 7	X_AX	E_KU	94	94.E.V 94._._ 94.K.C 94.U.V	1.5 0.0 2.0 1.5	ʌː+koː	0	9	And:9
23400	114_and	And	TANGKHUL	TANGKHUL	āṅka-la	āṅka-la	ʌː ŋ k ʌ + l ʌ	ukhr1238					7 4 1 7 9 5 7	XMBZ_AX	ENKE_LE	138	138.E.V 138.N.c 138.K.C 138.E.V 138._._ 138.L.C 138.E.V	1.5 1.1 1.75 0.8 0.0 2.0 1.5	ʌːŋkʌ+lʌ	0	6	And:6
23401	114_and	And	TANGKHUL	TANGKHUL	la	la	l ʌ	ukhr1238					5 7	AX	LE	138	138.L.C 138.E.V	2.0 1.5	lʌ	0	1	And:1
23402	114_and	And	MARING	MARING	-nuṅ	-nuṅ	+ n̪ u ŋ	mari1416		24.2854	94.0723		9 4 7 4	_AXN	_NYN	90	90._._ 90.N.C 90.Y.V 90.N.c	0.0 2.0 1.5 0.8	+n̪uŋ	0	3	And:3
23403	114_and	And	CHINGPAORKACHIN	CHINGPA_OR_KACHIN	te	te	t̪ e	kach1280		25.4634	97.3278		1 7	AX	TE	29	29.T.C 29.E.V	2.0 1.5	t̪e	0	7	And:7
23405	114_and	And	SINGPHO	SINGPHO	maṅ	maṅ	m ʌ ŋ	sing1264		27.296	95.606		4 7 4	AXN	MEN	130	130.M.C 130.E.V 130.N.c	2.0 1.5 0.8	mʌŋ	0	5	And:5
23407	114_and	And	MEITHEI	MEITHEI	a-du-gā	a-du-gā	ʌ + d̪ u + g ʌː	mani1292		24.4409	93.3426		7 9 1 7 9 1 7	X_AX_AX	E_TY_KE	92	92.E.V 92._._ 92.T.C 92.Y.V 92._._ 92.K.C 92.E.V	1.5 0.0 2.0 1.5 0.0 2.0 1.5	ʌ+d̪u+gʌː	0	9	And:9
23408	114_and	And	THADO	THADO	yōṅ	yōṅ	j oː ŋ	thad1238		24.096	93.722		6 7 4	AXN	JUN	144	144.J.C 144.U.V 144.N.c	2.0 1.5 0.8	joːŋ	0	10	And:10
23409	114_and	And	THADO	THADO	lē	lē	l eː	thad1238		24.096	93.722		5 7	AX	LE	144	144.L.C 144.E.V	2.0 1.5	leː	0	1	And:1
23410	114_and	And	SIYIN	SIYIN	lē	lē	l eː	siyi1240		23.8192	93.6884		5 7	AX	LE	132	132.L.C 132.E.V	2.0 1.5	leː	0	1	And:1
23411	114_and	And	LAI	LAI	hẽ	hẽ	h ẽ	haka1240		22.8735	92.8208		3 7	AX	HE	72	72.H.C 72.E.V	2.0 1.5	hẽ	0	6	And:6
23412	114_and	And	LUSHEI	LUSHEI	le°	le°	l e +	lush1249		22.6138	92.6247		5 7 9	AX_	LE_	83	83.L.C 83.E.V 83._._	2.0 1.5 0.0	le+	0	1	And:1
23413	114_and	And	BANJOGI	BANJOGI	ā-daṅ	ā-daṅ	ʌː + d̪ ʌ ŋ	zotu1235		22.5298	93.29		7 9 1 7 4	X_AXN	E_TEN	13	13.E.V 13._._ 13.T.C 13.E.V 13.N.c	1.5 0.0 2.0 1.5 0.8	ʌː+d̪ʌŋ	0	7	And:7
23414	114_and	And	PANKHU	PANKHU	ā-daṅ	ā-daṅ	ʌː + d̪ ʌ ŋ	pank1249		22.6797	92.9461		7 9 1 7 4	X_AXN	E_TEN	109	109.E.V 109._._ 109.T.C 109.E.V 109.N.c	1.5 0.0 2.0 1.5 0.8	ʌː+d̪ʌŋ	0	7	And:7
23415	114_and	And	HALLAM	HALLAM	nūk-chū	nūk-chū	n̪ uː k + tʃ uː	fala1243		23.7892833333	92.3254633333		4 7 1 9 1 7	AXN_AX	NYK_TY	45	45.N.C 45.Y.V 45.K.c 45._._ 45.T.C 45.Y.V	2.0 1.5 0.8 0.0 2.0 1.5	n̪uːk+tʃuː	0	13	And:13
23416	114_and	And	LANGRONG	LANGRONG	chūn	chūn	tʃ uː n̪	lang1312					1 7 4	AXN	TYN	75	75.T.C 75.Y.V 75.N.c	2.0 1.5 0.8	tʃuːn̪	0	7	And:7
23417	114_and	And	AIMOL	AIMOL	k’ana-k’ana-ko	k’ana-k’ana-ko	kʱ ʌ n̪ ʌ + kʱ ʌ n̪ ʌ + k o	aimo1244		24.6437	94.3556		1 7 4 7 9 1 7 4 7 9 1 7	AXBZ_AXBZ_AX	KENE_KENE_KU	2	2.K.C 2.E.V 2.N.C 2.E.V 2._._ 2.K.C 2.E.V 2.N.C 2.E.V 2._._ 2.K.C 2.U.V	2.0 1.5 1.75 0.8 0.0 2.0 1.5 1.75 0.8 0.0 2.0 1.5	kʱʌn̪ʌ+kʱʌn̪ʌ+ko	0	2	And:2
23418	114_and	And	CHIRU	CHIRU	-ta-nā	-ta-nā	+ t̪ ʌ + n̪ ʌː	chir1283		25.4643	94.4072		9 1 7 9 4 7	_AX_AX	_TE_NE	30	30._._ 30.T.C 30.E.V 30._._ 30.N.C 30.E.V	0.0 2.0 1.5 0.0 2.0 1.5	+t̪ʌ+n̪ʌː	0	7	And:7
23419	114_and	And	KOLHRENG	KOLHRENG	hā-ko	hā-ko	h ʌː + k o	kolh1240					3 7 9 1 7	AX_AX	HE_KU	65	65.H.C 65.E.V 65._._ 65.K.C 65.U.V	2.0 1.5 0.0 2.0 1.5	hʌː+ko	0	9	And:9
23420	114_and	And	KOM	KOM	k’an-chūṅ	k’an-chūṅ	kʱ ʌ n̪ + tʃ uː ŋ	komi1270		24.8688	94.534		1 7 4 9 1 7 4	AXN_AXN	KEN_TYN	66	66.K.C 66.E.V 66.N.c 66._._ 66.T.C 66.Y.V 66.N.c	2.0 1.5 0.8 0.0 2.0 1.5 0.8	kʱʌn̪+tʃuːŋ	0	7	And:7
23421	114_and	And	PURUM	PURUM	nā-mā	nā-mā	n̪ ʌː + m ʌː	puru1266		25.3887	95.0935		4 7 9 4 7	AX_AX	NE_ME	112	112.N.C 112.E.V 112._._ 112.M.C 112.E.V	2.0 1.5 0.0 2.0 1.5	n̪ʌː+mʌː	0	3	And:3
23422	114_and	And	ANAL	ANAL	dāl dāl-ū t’i-maṅ	dāl dāl-ū t’i-maṅ	d̪ ʌː l + d̪ ʌː l + uː + t̪ʱ i + m ʌ ŋ	anal1239		24.0506	94.2806		1 7 5 9 1 7 5 9 7 9 1 7 9 4 7 4	AXN_AXN_X_AX_AXN	TEL_TEL_Y_TI_MEN	5	5.T.C 5.E.V 5.L.c 5._._ 5.T.C 5.E.V 5.L.c 5._._ 5.Y.V 5._._ 5.T.C 5.I.V 5._._ 5.M.C 5.E.V 5.N.c	2.0 1.5 0.8 0.0 2.0 1.5 0.8 0.0 1.5 0.0 2.0 1.5 0.0 2.0 1.5 0.8	d̪ʌːl+d̪ʌːl+uː+t̪ʱi+mʌŋ	0	4	And:4
23423	114_and	And	HIROILAMGANG	HIROI_LAMGANG	ta-dā	ta-dā	t̪ ʌ + d̪ ʌː	lamk1238		24.1523	94.2706		1 7 9 1 7	AX_AX	TE_TE	46	46.T.C 46.E.V 46._._ 46.T.C 46.E.V	2.0 1.5 0.0 2.0 1.5	t̪ʌ+d̪ʌː	0	7	And:7
23424	114_and	And	TAUNGTHA	TAUNGTHA	nā	nā	n̪ ʌː	paok1235		20.211	97.5969		4 7	AX	NE	139	139.N.C 139.E.V	2.0 1.5	n̪ʌː	0	3	And:3
23425	114_and	And	CHINBON	CHINBON	nī-k’un-nai	nī-k’un-nai	n̪ iː + kʱ u n̪ + n̪ ai	chin1478		20.0776	94.0506		4 7 9 1 7 4 9 4 7	AX_AXN_AX	NI_KYN_NA	28	28.N.C 28.I.V 28._._ 28.K.C 28.Y.V 28.N.c 28._._ 28.N.C 28.A.V	2.0 1.5 0.0 2.0 1.5 0.8 0.0 2.0 1.5	n̪iː+kʱun̪+n̪ai	0	11	And:11
23426	114_and	And	THAYETMYOCHIN	THAYETMYO_CHIN	nu	nu	n̪ u	thay1247					4 7	AX	NY	146	146.N.C 146.Y.V	2.0 1.5	n̪u	0	3	And:3
23427	114_and	And	SHOORKHYANG	SHO_OR_KHYANG	nü	nü	n̪ y	asho1236		21.393	93.5069		4 7	AX	NY	128	128.N.C 128.Y.V	2.0 1.5	n̪y	0	3	And:3
23428	114_and	And	KHAMI	KHAMI	laik	laik	l ai k	kham1284					5 7 1	AXN	LAK	61	61.L.C 61.A.V 61.K.c	2.0 1.5 0.8	laik	0	1	And:1
23429	114_and	And	KADU	KADU	yauᵏ	yauᵏ	j au k̚	kadu1254					6 7 1	AXN	JAK	52	52.J.C 52.A.V 52.K.c	2.0 1.5 0.8	jauk̚	0	10	And:10
23430	114_and	And	MARU	MARU	ä	ä	ɛ	maru1249		24.942535	99.8338		7	X	E	91	91.E.V	1.5	ɛ	0	14	And:14
23431	114_and	And	MAINGTHAORNGACHANG	MAINGTHA_OR_NGACHANG	lå	lå	l ɔ	acha1249		24.3479	97.7438		5 7	AX	LU	85	85.L.C 85.U.V	2.0 1.5	lɔ	0	1	And:1
23432	114_and	And	PHUNSAMONG	PHUN_SAMONG	lå (with)	lå	l ɔ	hpon1238		24.4606	97.1142		5 7	AX	LU	111	111.L.C 111.U.V	2.0 1.5	lɔ	0	1	And:1
23434	114_and	And	MRU	MRU	ādoṅ-ey	ādoṅ-ey	ʌː d̪ o ŋ + e j	mruu1242		24.154	90.6317		7 1 7 4 9 7 6	XBYN_XN	ETUN_EJ	101	101.E.V 101.T.C 101.U.V 101.N.c 101._._ 101.E.V 101.J.c	1.5 1.75 1.3 0.8 0.0 1.5 0.8	ʌːd̪oŋ+ej	0	7	And:7
23435	114_and	And	BURMESEWRITTEN	BURMESE_WRITTEN	nhaṅ°	nhaṅ°	n̪ h ʌ ŋ +	nucl1310		20.7926	93.9665		4 3 7 4 9	ACYN_	NHEN_	19	19.N.C 19.H.C 19.E.V 19.N.c 19._._	2.0 1.5 1.3 0.8 0.0	n̪hʌŋ+	0	3	And:3
23437	114_and	And	ARAKANESE	ARAKANESE	hnàn	hnàn	h n̪ a n̪	marm1234		22.759948	92.210748		3 4 7 4	ACXN	HNAN	9	9.H.C 9.N.C 9.A.V 9.N.c	2.0 1.5 1.5 0.8	hn̪an̪	0	3	And:3
23438	114_and	And	TAUNGYO	TAUNGYO	nå	nå	n̪ ɔ	taun1248		20.4104	96.7401		4 7	AX	NU	141	141.N.C 141.U.V	2.0 1.5	n̪ɔ	0	3	And:3
23439	114_and	And	DANU	DANU	nä	nä	n̪ ɛ	danu1251					4 7	AX	NE	33	33.N.C 33.E.V	2.0 1.5	n̪ɛ	0	3	And:3
23440	114_and	And	INTHA	INTHA	nā	nā	n̪ ʌː	inth1239					4 7	AX	NE	50	50.N.C 50.E.V	2.0 1.5	n̪ʌː	0	3	And:3
23441	114_and	And	TAVOYAN	TAVOYAN	nā	nā	n̪ ʌː	tavo1242		14.1078	98.194		4 7	AX	NE	142	142.N.C 142.E.V	2.0 1.5	n̪ʌː	0	3	And:3
56128	53_ass	Ass	MANDARIN	MANDARIN	˨ lū	˨ lū	² + l uː	mand1415		40.0209	116.228		8 9 5 7	T_AX	6_LY	87	87.6.T 87._._ 87.L.C 87.Y.V	1.0 0.0 1.6 3.0	²+luː	0	18	Ass:18
56129	53_ass	Ass	CANTONESE	CANTONESE	˨ lui	˨ lui	² + l u i	cant1236					8 9 5 7 7	T_AXZ	6_LYI	21	21.6.T 21._._ 21.L.C 21.Y.V 21.I.V	1.0 0.0 1.6 3.0 0.7	²+lui	0	18	Ass:18
56137	53_ass	Ass	PWOBASSEIN	PWO_BASSEIN	k^àθi yaũ	k^àθi yaũ	k a θ i + j ʌ ũ	pwow1235		17.3622	97.7044		1 7 3 7 9 6 7 7	AXBZ_AXZ	KADI_JEY	113	113.K.C 113.A.V 113.D.C 113.I.V 113._._ 113.J.C 113.E.V 113.Y.V	2.0 1.5 1.75 0.8 0.0 2.0 1.5 0.8	kaθi+jʌũ	0	23	Ass:23
56138	53_ass	Ass	PWOMAULMEIN	PWO_MAULMEIN	k^àθi yaũ	k^àθi yaũ	k a θ i + j ʌ ũ	pwoe1235		15.1915	98.7355		1 7 3 7 9 6 7 7	AXBZ_AXZ	KADI_JEY	115	115.K.C 115.A.V 115.D.C 115.I.V 115._._ 115.J.C 115.E.V 115.Y.V	2.0 1.5 1.75 0.8 0.0 2.0 1.5 0.8	kaθi+jʌũ	0	23	Ass:23
56139	53_ass	Ass	SGALITERARY	SGA_LITERARY	˧ ka ˥˦ θē = yå	˧ ka ˥˦ θē = yå	³ + k ʌ + ⁵⁴ + θ eː + + + j ɔ	sgaw1245		17.9872	97.7126		8 9 1 7 9 8 9 3 7 9 9 9 6 7	T_AX_T_AX___AX	6_KE_3_DE___JU	126	126.6.T 126._._ 126.K.C 126.E.V 126._._ 126.3.T 126._._ 126.D.C 126.E.V 126._._ 126._._ 126._._ 126.J.C 126.U.V	1.0 0.0 1.6 3.0 0.0 1.0 0.0 1.6 3.0 0.0 0.0 0.0 1.6 3.0	³+kʌ+⁵⁴+θeː+++jɔ	0	29	Ass:29
56142	53_ass	Ass	BWE	BWE	θri	θri	θ r i	bwek1238		18.9796	96.9936		3 5 7	ACX	DRI	20	20.D.C 20.R.C 20.I.V	2.0 1.5 1.5	θri	0	22	Ass:22
56143	53_ass	Ass	WEWAW	WEWAW	k^àθe	k^àθe	k a θ e	wewa1238		19.020577	96.540526		1 7 3 7	AXBZ	KADE	153	153.K.C 153.A.V 153.D.C 153.E.V	2.0 1.5 1.75 0.8	kaθe	0	23	Ass:23
56144	53_ass	Ass	KARENBYU	KARENBYU	là	là	l a	geba1237		19.4991	96.9492		5 7	AX	LA	56	56.L.C 56.A.V	2.0 1.5	la	0	18	Ass:18
56145	53_ass	Ass	KARENNI	KARENNI	myà å lyà	myà å lyà	m j a + ɔ + l j a	east2342		19.8939	98.3359		4 6 7 9 7 9 5 6 7	ACX_X_ACX	MJA_U_LJA	57	57.M.C 57.J.C 57.A.V 57._._ 57.U.V 57._._ 57.L.C 57.J.C 57.A.V	2.0 1.5 1.5 0.0 1.5 0.0 2.0 1.5 1.5	mja+ɔ+lja	0	24	Ass:24
56146	53_ass	Ass	GHEKO	GHEKO	myä	myä	m j ɛ	geko1235		19.6741	96.5308		4 6 7	ACX	MJE	41	41.M.C 41.J.C 41.E.V	2.0 1.5 1.5	mjɛ	0	24	Ass:24
56147	53_ass	Ass	PADAUNG	PADAUNG	myä	myä	m j ɛ	kaya1315		19.5183	97.4138		4 6 7	ACX	MJE	107	107.M.C 107.J.C 107.E.V	2.0 1.5 1.5	mjɛ	0	24	Ass:24
56148	53_ass	Ass	YEINBA	YEINBA	θüᵏ	θüᵏ	θ y k̚	yinb1236		19.0383	97.2134		3 7 1	AXN	DYK	157	157.D.C 157.Y.V 157.K.c	2.0 1.5 0.8	θyk̚	0	31	Ass:31
56149	53_ass	Ass	MOPWABILICHI	MOPWA_BILICHI	k^àθi là	k^àθi là	k a θ i + l a	bili1249					1 7 3 7 9 5 7	AXBZ_AX	KADI_LA	97	97.K.C 97.A.V 97.D.C 97.I.V 97._._ 97.L.C 97.A.V	2.0 1.5 1.75 0.8 0.0 2.0 1.5	kaθi+la	0	23	Ass:23
56150	53_ass	Ass	MOPWADERMUHA	MOPWA_DERMUHA	l^àɣo là	l^àɣo là	l a ɣ o + l a	derm1238					5 7 3 7 9 5 7	AXBZ_AX	LAGU_LA	98	98.L.C 98.A.V 98.G.C 98.U.V 98._._ 98.L.C 98.A.V	2.0 1.5 1.75 0.8 0.0 2.0 1.5	laɣo+la	0	27	Ass:27
56155	53_ass	Ass	MANCHATIORPATNI	MANCHATI_OR_PATNI	kārā	kārā	k ʌː r ʌː	karb1241		25.7317	93.0462		1 7 5 7	AXBZ	KERE	86	86.K.C 86.E.V 86.R.C 86.E.V	2.0 1.5 1.75 0.8	kʌːrʌː	0	23	Ass:23
56156	53_ass	Ass	CHAMBALAHULI	CHAMBA_LAHULI	kār	kār	k ʌː r	cham1308					1 7 5	AXN	KER	23	23.K.C 23.E.V 23.R.c	2.0 1.5 0.8	kʌːr	0	23	Ass:23
56157	53_ass	Ass	KANASHI	KANASHI	gad’a (Aryan)	gad’a	g ʌ d̪ʱ ʌ	kana1283		32.2843	77.1553		1 7 1 7	AXBZ	KETE	54	54.K.C 54.E.V 54.T.C 54.E.V	2.0 1.5 1.75 0.8	gʌd̪ʱʌ	0	23	Ass:23
56158	53_ass	Ass	KANAURI	KANAURI	pōṯs̱	pōṯs̱	p oː ts	kinn1249		31.3688	78.3148		1 7 2	AXN	PUC	55	55.P.C 55.U.V 55.C.c	2.0 1.5 0.8	poːts	0	25	Ass:25
56159	53_ass	Ass	RANGKAS	RANGKAS	gadā (Aryan)	gadā	g ʌ d̪ ʌː	rang1266		29.2278	80.0845		1 7 1 7	AXBZ	KETE	118	118.K.C 118.E.V 118.T.C 118.E.V	2.0 1.5 1.75 0.8	gʌd̪ʌː	0	23	Ass:23
56160	53_ass	Ass	DHIMAL	DHIMAL	gàd’à (Aryan)	gàd’à	g a d̪ʱ a	dhim1246		26.6283	88.3798		1 7 1 7	AXBZ	KATA	35	35.K.C 35.A.V 35.T.C 35.A.V	2.0 1.5 1.75 0.8	gad̪ʱa	0	23	Ass:23
56161	53_ass	Ass	THAMI	THAMI	gad’ā (Aryan)	gad’ā	g ʌ d̪ʱ ʌː	than1259		28.7554	85.7657		1 7 1 7	AXBZ	KETE	145	145.K.C 145.E.V 145.T.C 145.E.V	2.0 1.5 1.75 0.8	gʌd̪ʱʌː	0	23	Ass:23
56162	53_ass	Ass	LIMBU	LIMBU	gad’ā (Aryan)	gad’ā	g ʌ d̪ʱ ʌː	limb1266		27.2703	87.8859		1 7 1 7	AXBZ	KETE	77	77.K.C 77.E.V 77.T.C 77.E.V	2.0 1.5 1.75 0.8	gʌd̪ʱʌː	0	23	Ass:23
56163	53_ass	Ass	YAKHA	YAKHA	gad’āhā (Aryan)	gad’āhā	g ʌ d̪ʱ ʌː h ʌː	yakk1236		27.3714	87.9306		1 7 1 7 3 7	AXBYBZ	KETEHE	155	155.K.C 155.E.V 155.T.C 155.E.V 155.H.C 155.E.V	2.0 1.5 1.75 1.3 1.75 0.8	gʌd̪ʱʌːhʌː	0	23	Ass:23
56164	53_ass	Ass	KHAMBU	KHAMBU	gad’aha (Aryan)	gad’aha	g ʌ d̪ʱ ʌ h ʌ	kham1288					1 7 1 7 3 7	AXBYBZ	KETEHE	60	60.K.C 60.E.V 60.T.C 60.E.V 60.H.C 60.E.V	2.0 1.5 1.75 1.3 1.75 0.8	gʌd̪ʱʌhʌ	0	23	Ass:23
56165	53_ass	Ass	RAIORJIMDAR	RAI_OR_JIMDAR	gad’ā (Aryan)	gad’ā	g ʌ d̪ʱ ʌː	athp1241		26.8794	87.3296		1 7 1 7	AXBZ	KETE	117	117.K.C 117.E.V 117.T.C 117.E.V	2.0 1.5 1.75 0.8	gʌd̪ʱʌː	0	23	Ass:23
56166	53_ass	Ass	GURUNG	GURUNG	ad’ā (? Aryan)	ad’ā	ʌ d̪ʱ ʌː	east2345		28.4368	84.58145		7 1 7	XBZ	ETE	42	42.E.V 42.T.C 42.E.V	1.5 1.75 0.8	ʌd̪ʱʌː	0	23	Ass:23
56167	53_ass	Ass	MURMI	MURMI	gad’ā (Aryan)	gad’ā	g ʌ d̪ʱ ʌː	west2415		28.0239	85.0563		1 7 1 7	AXBZ	KETE	102	102.K.C 102.E.V 102.T.C 102.E.V	2.0 1.5 1.75 0.8	gʌd̪ʱʌː	0	23	Ass:23
56168	53_ass	Ass	SUNWAR	SUNWAR	gād’ā (Aryan)	gād’ā	g ʌː d̪ʱ ʌː	sunw1242		27.5201	86.2476		1 7 1 7	AXBZ	KETE	134	134.K.C 134.E.V 134.T.C 134.E.V	2.0 1.5 1.75 0.8	gʌːd̪ʱʌː	0	23	Ass:23
56169	53_ass	Ass	MAGARI	MAGARI	gad’ā (Aryan)	gad’ā	g ʌ d̪ʱ ʌː	west2418		28.2462	83.511		1 7 1 7	AXBZ	KETE	84	84.K.C 84.E.V 84.T.C 84.E.V	2.0 1.5 1.75 0.8	gʌd̪ʱʌː	0	23	Ass:23
56170	53_ass	Ass	NEWARI	NEWARI	gaḍ’ā (Aryan)	gaḍ’ā	g ʌ ɖʱ ʌː	newa1246		27.2614	84.9577		1 7 1 7	AXBZ	KETE	105	105.K.C 105.E.V 105.T.C 105.E.V	2.0 1.5 1.75 0.8	gʌɖʱʌː	0	23	Ass:23
56171	53_ass	Ass	PADIPAHRIORPAHI	PADI_PAHRI_OR_PAHI	gad’a (Aryan)	gad’a	g ʌ d̪ʱ ʌ	newa1246		27.2614	84.9577		1 7 1 7	AXBZ	KETE	108	108.K.C 108.E.V 108.T.C 108.E.V	2.0 1.5 1.75 0.8	gʌd̪ʱʌ	0	23	Ass:23
56172	53_ass	Ass	RONGORLEPCHA	RONG_OR_LEPCHA	póṅ-bū	póṅ-bū	p o ŋ + b uː	lepc1244		27.0869	88.5726		1 7 4 9 1 7	AXN_AX	PUN_PY	121	121.P.C 121.U.V 121.N.c 121._._ 121.P.C 121.Y.V	2.0 1.5 0.8 0.0 2.0 1.5	poŋ+buː	0	19	Ass:19
56173	53_ass	Ass	TOTO	TOTO	pāṅ-bū	pāṅ-bū	p ʌː ŋ + b uː	toto1302		26.67	88.975		1 7 4 9 1 7	AXN_AX	PEN_PY	150	150.P.C 150.E.V 150.N.c 150._._ 150.P.C 150.Y.V	2.0 1.5 0.8 0.0 2.0 1.5	pʌːŋ+buː	0	19	Ass:19
56175	53_ass	Ass	LOLONI	LOLO_NI	˧ a ˦˨ šla ˨˦ la ˦ mᵘ	˧ a ˦˨ šla ˨˦ la ˦ mᵘ	³ + ʌ + ⁴² + ʃ l ʌ + ²⁴ + l ʌ + ⁴ + m ŭ	axiy1235		24.6009	103.713		8 9 7 9 8 9 3 5 7 9 8 9 5 7 9 8 9 4 7	T_X_T_ACX_T_AX_T_AX	6_E_3_SLE_2_LE_6_MY	81	81.6.T 81._._ 81.E.V 81._._ 81.3.T 81._._ 81.S.C 81.L.C 81.E.V 81._._ 81.2.T 81._._ 81.L.C 81.E.V 81._._ 81.6.T 81._._ 81.M.C 81.Y.V	1.0 0.0 3.0 0.0 1.0 0.0 1.6 1.2 3.0 0.0 1.0 0.0 1.6 3.0 0.0 1.0 0.0 1.6 3.0	³+ʌ+⁴²+ʃlʌ+²⁴+lʌ+⁴+mŭ	0	26	Ass:26
56177	53_ass	Ass	AKAKA	A_KA_KA	lå	lå	l ɔ	akha1245		21.2309	100.964		5 7	AX	LU	3	3.L.C 3.U.V	2.0 1.5	lɔ	0	18	Ass:18
56178	53_ass	Ass	MOSHO	MO_SHO	ten ža	ten ža	t̪ e n̪ + ʒ ʌ	lahu1253		21.2701	100.214		1 7 4 9 3 7	AXN_AX	TEN_SE	100	100.T.C 100.E.V 100.N.c 100._._ 100.S.C 100.E.V	2.0 1.5 0.8 0.0 2.0 1.5	t̪en̪+ʒʌ	0	28	Ass:28
56179	53_ass	Ass	LAHU	LAHU	lå	lå	l ɔ	lahu1253		21.2701	100.214		5 7	AX	LU	71	71.L.C 71.U.V	2.0 1.5	lɔ	0	18	Ass:18
56180	53_ass	Ass	BHOTIATIBETANWRITTEN	BHOTIA_TIBETAN_WRITTEN	boṅ-bu	boṅ-bu	b o ŋ + b u	sikk1242		27.85795	88.59153		1 7 4 9 1 7	AXN_AX	PUN_PY	16	16.P.C 16.U.V 16.N.c 16._._ 16.P.C 16.Y.V	2.0 1.5 0.8 0.0 2.0 1.5	boŋ+bu	0	19	Ass:19
56182	53_ass	Ass	BALTI	BALTI	boṅ-bu	boṅ-bu	b o ŋ + b u	balt1258		34.4491	77.2859		1 7 4 9 1 7	AXN_AX	PUN_PY	12	12.P.C 12.U.V 12.N.c 12._._ 12.P.C 12.Y.V	2.0 1.5 0.8 0.0 2.0 1.5	boŋ+bu	0	19	Ass:19
56183	53_ass	Ass	BHOTIAOFPURIK	BHOTIA_OF_PURIK	boṅ-bū	boṅ-bū	b o ŋ + b uː	puri1258		34.3386	76.0127		1 7 4 9 1 7	AXN_AX	PUN_PY	15	15.P.C 15.U.V 15.N.c 15._._ 15.P.C 15.Y.V	2.0 1.5 0.8 0.0 2.0 1.5	boŋ+buː	0	19	Ass:19
56184	53_ass	Ass	LADAKHI	LADAKHI	boṅ-ṅu	boṅ-ṅu	b o ŋ + ŋ u	lada1244		33.468	80.6013		1 7 4 9 4 7	AXN_AX	PUN_NY	69	69.P.C 69.U.V 69.N.c 69._._ 69.N.C 69.Y.V	2.0 1.5 0.8 0.0 2.0 1.5	boŋ+ŋu	0	19	Ass:19
56185	53_ass	Ass	LADAKHIOFSPITI	LADAKHI_OF_SPITI	bum-bu	bum-bu	b u m + b u	spit1240		32.526	77.833		1 7 4 9 1 7	AXN_AX	PYM_PY	70	70.P.C 70.Y.V 70.M.c 70._._ 70.P.C 70.Y.V	2.0 1.5 0.8 0.0 2.0 1.5	bum+bu	0	19	Ass:19
56186	53_ass	Ass	KAGATE	KAGATE	puṅ-gu	puṅ-gu	p u ŋ + g u	kaga1252		27.4492	86.1675		1 7 4 9 1 7	AXN_AX	PYN_KY	53	53.P.C 53.Y.V 53.N.c 53._._ 53.K.C 53.Y.V	2.0 1.5 0.8 0.0 2.0 1.5	puŋ+gu	0	19	Ass:19
56187	53_ass	Ass	SHARPA	SHARPA	puṅ-bu	puṅ-bu	p u ŋ + b u	sher1255		27.674	86.9994		1 7 4 9 1 7	AXN_AX	PYN_PY	127	127.P.C 127.Y.V 127.N.c 127._._ 127.P.C 127.Y.V	2.0 1.5 0.8 0.0 2.0 1.5	puŋ+bu	0	19	Ass:19
56188	53_ass	Ass	DANJONGKA	DANJONGKA	boṅ-gu	boṅ-gu	b o ŋ + g u	sikk1242		27.85795	88.59153		1 7 4 9 1 7	AXN_AX	PUN_KY	32	32.P.C 32.U.V 32.N.c 32._._ 32.K.C 32.Y.V	2.0 1.5 0.8 0.0 2.0 1.5	boŋ+gu	0	19	Ass:19
56189	53_ass	Ass	HLOKE	HLOKE	bom	bom	b o m	lowa1242		29.0324	83.8959		1 7 4	AXN	PUM	47	47.P.C 47.U.V 47.M.c	2.0 1.5 0.8	bom	0	25	Ass:25
56190	53_ass	Ass	BODOORBARA	BODO_OR_BARA	gambǒ-gǒrai	gambǒ-gǒrai	g ʌ m b ɒ + g ɒ r ai	bodo1269		26.1	92.0		1 7 4 1 7 9 1 7 5 7	AXMBZ_AXBZ	KEMPO_KORA	17	17.K.C 17.E.V 17.M.c 17.P.C 17.O.V 17._._ 17.K.C 17.O.V 17.R.C 17.A.V	2.0 1.5 1.1 1.75 0.8 0.0 2.0 1.5 1.75 0.8	gʌmbɒ+gɒrai	0	20	Ass:20
56191	53_ass	Ass	TANGKHUL	TANGKHUL	si-gui ka-t’ā	si-gui ka-t’ā	s i + g u i + k ʌ + t̪ʱ ʌː	ukhr1238					3 7 9 1 7 7 9 1 7 9 1 7	AX_AXZ_AX_AX	SI_KYI_KE_TE	138	138.S.C 138.I.V 138._._ 138.K.C 138.Y.V 138.I.V 138._._ 138.K.C 138.E.V 138._._ 138.T.C 138.E.V	2.0 1.5 0.0 2.0 1.5 0.8 0.0 2.0 1.5 0.0 2.0 1.5	si+gui+kʌ+t̪ʱʌː	0	30	Ass:30
56193	53_ass	Ass	MEITHEI	MEITHEI	gād’ā (Aryan)	gād’ā	g ʌː d̪ʱ ʌː	mani1292		24.4409	93.3426		1 7 1 7	AXBZ	KETE	92	92.K.C 92.E.V 92.T.C 92.E.V	2.0 1.5 1.75 0.8	gʌːd̪ʱʌː	0	23	Ass:23
56194	53_ass	Ass	THADO	THADO	gād’ā (Aryan)	gād’ā	g ʌː d̪ʱ ʌː	thad1238		24.096	93.722		1 7 1 7	AXBZ	KETE	144	144.K.C 144.E.V 144.T.C 144.E.V	2.0 1.5 1.75 0.8	gʌːd̪ʱʌː	0	23	Ass:23
56195	53_ass	Ass	BURMESEWRITTEN	BURMESE_WRITTEN	˨˩ mrañ	˨˩ mrañ	²¹ + m r ʌ ɲ	nucl1310		20.7926	93.9665		8 9 4 5 7 4	T_ACXN	3_MREN	19	19.3.T 19._._ 19.M.C 19.R.C 19.E.V 19.N.c	1.0 0.0 1.6 1.2 3.0 0.5	²¹+mrʌɲ	0	21	Ass:21
56197	53_ass	Ass	TAVOYAN	TAVOYAN	myä	myä	m j ɛ	tavo1242		14.1078	98.194		4 6 7	ACX	MJE	142	142.M.C 142.J.C 142.E.V	2.0 1.5 1.5	mjɛ	0	24	Ass:24
51854	37_back	Back	MANDARIN	MANDARIN	˦˨ pä	˦˨ pä	⁴² + p ɛ	mand1415		40.0209	116.228		8 9 1 7	T_AX	3_PE	87	87.3.T 87._._ 87.P.C 87.E.V	1.0 0.0 1.6 3.0	⁴²+pɛ	0	35	Back:35
51855	37_back	Back	MANDARIN	MANDARIN	˦ pä	˦ pä	⁴ + p ɛ	mand1415		40.0209	116.228		8 9 1 7	T_AX	6_PE	87	87.6.T 87._._ 87.P.C 87.E.V	1.0 0.0 1.6 3.0	⁴+pɛ	0	35	Back:35
51856	37_back	Back	CANTONESE	CANTONESE	˥˦ pūi	˥˦ pūi	⁵⁴ + p uː i	cant1236					8 9 1 7 7	T_AXZ	3_PYI	21	21.3.T 21._._ 21.P.C 21.Y.V 21.I.V	1.0 0.0 1.6 3.0 0.7	⁵⁴+puːi	0	35	Back:35
51865	37_back	Back	PWOLITERARY	PWO_LITERARY	˨ k’lōṅ	˨ k’lōṅ	² + kʱ l oː ŋ	phra1235		18.0048	99.6382		8 9 1 5 7 4	T_ACXN	6_KLUN	114	114.6.T 114._._ 114.K.C 114.L.C 114.U.V 114.N.c	1.0 0.0 1.6 1.2 3.0 0.5	²+kʱloːŋ	0	32	Back:32
51866	37_back	Back	PWOBASSEIN	PWO_BASSEIN	kluṅ ku	kluṅ ku	k l u ŋ + k u	pwow1235		17.3622	97.7044		1 5 7 4 9 1 7	ACXN_AX	KLYN_KY	113	113.K.C 113.L.C 113.Y.V 113.N.c 113._._ 113.K.C 113.Y.V	2.0 1.5 1.5 0.8 0.0 2.0 1.5	kluŋ+ku	0	32	Back:32
51867	37_back	Back	PWOMAULMEIN	PWO_MAULMEIN	kluṅ ku	kluṅ ku	k l u ŋ + k u	pwoe1235		15.1915	98.7355		1 5 7 4 9 1 7	ACXN_AX	KLYN_KY	115	115.K.C 115.L.C 115.Y.V 115.N.c 115._._ 115.K.C 115.Y.V	2.0 1.5 1.5 0.8 0.0 2.0 1.5	kluŋ+ku	0	32	Back:32
51868	37_back	Back	TAUNGTHU	TAUNGTHU	ṅà	ṅà	ŋ a	paok1235		20.211	97.5969		4 7	AX	NA	140	140.N.C 140.A.V	2.0 1.5	ŋa	0	34	Back:34
51869	37_back	Back	SGALITERARY	SGA_LITERARY	˧ klö	˧ klö	³ + k l ø	sgaw1245		17.9872	97.7126		8 9 1 5 7	T_ACX	6_KLU	126	126.6.T 126._._ 126.K.C 126.L.C 126.U.V	1.0 0.0 1.6 1.2 3.0	³+klø	0	32	Back:32
51871	37_back	Back	BWE	BWE	sàmu	sàmu	s a m u	bwek1238		18.9796	96.9936		3 7 4 7	AXBZ	SAMY	20	20.S.C 20.A.V 20.M.C 20.Y.V	2.0 1.5 1.75 0.8	samu	0	41	Back:41
51872	37_back	Back	WEWAW	WEWAW	^àꭓe sà hwi	^àꭓe sà hwi	a x e + s a + h w i	wewa1238		19.020577	96.540526		7 3 7 9 3 7 9 3 6 7	XBZ_AX_ACX	AGE_SA_HWI	153	153.A.V 153.G.C 153.E.V 153._._ 153.S.C 153.A.V 153._._ 153.H.C 153.W.C 153.I.V	1.5 1.75 0.8 0.0 2.0 1.5 0.0 2.0 1.5 1.5	axe+sa+hwi	0	49	Back:49
51873	37_back	Back	KARENBYU	KARENBYU	go klo	go klo	g o + k l o	geba1237		19.4991	96.9492		1 7 9 1 5 7	AX_ACX	KU_KLU	56	56.K.C 56.U.V 56._._ 56.K.C 56.L.C 56.U.V	2.0 1.5 0.0 2.0 1.5 1.5	go+klo	0	32	Back:32
51874	37_back	Back	KARENNI	KARENNI	ñà	ñà	ɲ a	east2342		19.8939	98.3359		4 7	AX	NA	57	57.N.C 57.A.V	2.0 1.5	ɲa	0	34	Back:34
51875	37_back	Back	GHEKO	GHEKO	k^àbà ku	k^àbà ku	k a b a + k u	geko1235		19.6741	96.5308		1 7 1 7 9 1 7	AXBZ_AX	KAPA_KY	41	41.K.C 41.A.V 41.P.C 41.A.V 41._._ 41.K.C 41.Y.V	2.0 1.5 1.75 0.8 0.0 2.0 1.5	kaba+ku	0	40	Back:40
51876	37_back	Back	PADAUNG	PADAUNG	kàṅ ko	kàṅ ko	k a ŋ + k o	kaya1315		19.5183	97.4138		1 7 4 9 1 7	AXN_AX	KAN_KU	107	107.K.C 107.A.V 107.N.c 107._._ 107.K.C 107.U.V	2.0 1.5 0.8 0.0 2.0 1.5	kaŋ+ko	0	32	Back:32
51877	37_back	Back	YEINBA	YEINBA	kuṅ ko ku	kuṅ ko ku	k u ŋ + k o + k u	yinb1236		19.0383	97.2134		1 7 4 9 1 7 9 1 7	AXN_AX_AX	KYN_KU_KY	157	157.K.C 157.Y.V 157.N.c 157._._ 157.K.C 157.U.V 157._._ 157.K.C 157.Y.V	2.0 1.5 0.8 0.0 2.0 1.5 0.0 2.0 1.5	kuŋ+ko+ku	0	32	Back:32
51878	37_back	Back	MOPWABILICHI	MOPWA_BILICHI	klö	klö	k l ø	bili1249					1 5 7	ACX	KLU	97	97.K.C 97.L.C 97.U.V	2.0 1.5 1.5	klø	0	32	Back:32
51879	37_back	Back	MOPWADERMUHA	MOPWA_DERMUHA	à hlö	à hlö	a + h l ø	derm1238					7 9 3 5 7	X_ACX	A_HLU	98	98.A.V 98._._ 98.H.C 98.L.C 98.U.V	1.5 0.0 2.0 1.5 1.5	a+hlø	0	42	Back:42
51886	37_back	Back	MANCHATIORPATNI	MANCHATI_OR_PATNI	t’āk’ā	t’āk’ā	t̪ʱ ʌː kʱ ʌː	karb1241		25.7317	93.0462		1 7 1 7	AXBZ	TEKE	86	86.T.C 86.E.V 86.K.C 86.E.V	2.0 1.5 1.75 0.8	t̪ʱʌːkʱʌː	0	33	Back:33
51887	37_back	Back	CHAMBALAHULI	CHAMBA_LAHULI	t’āk’	t’āk’	t̪ʱ ʌː kʱ	cham1308					1 7 1	AXN	TEK	23	23.T.C 23.E.V 23.K.c	2.0 1.5 0.8	t̪ʱʌːkʱ	0	33	Back:33
51888	37_back	Back	KANASHI	KANASHI	piṣṭīṅ	piṣṭīṅ	p i ʂ ʈ iː ŋ	kana1283		32.2843	77.1553		1 7 3 1 7 4	AXMBYN	PISTIN	54	54.P.C 54.I.V 54.S.c 54.T.C 54.I.V 54.N.c	2.0 1.5 1.1 1.75 1.3 0.8	piʂʈiːŋ	0	33	Back:33
51889	37_back	Back	KANAURI	KANAURI	piṣṭiṅ	piṣṭiṅ	p i ʂ ʈ i ŋ	kinn1249		31.3688	78.3148		1 7 3 1 7 4	AXMBYN	PISTIN	55	55.P.C 55.I.V 55.S.c 55.T.C 55.I.V 55.N.c	2.0 1.5 1.1 1.75 1.3 0.8	piʂʈiŋ	0	33	Back:33
51890	37_back	Back	RANGKAS	RANGKAS	luṅ	luṅ	l u ŋ	rang1266		29.2278	80.0845		5 7 4	AXN	LYN	118	118.L.C 118.Y.V 118.N.c	2.0 1.5 0.8	luŋ	0	37	Back:37
51891	37_back	Back	DHIMAL	DHIMAL	gån-di	gån-di	g ɔ n̪ + d̪ i	dhim1246		26.6283	88.3798		1 7 4 9 1 7	AXN_AX	KUN_TI	35	35.K.C 35.U.V 35.N.c 35._._ 35.T.C 35.I.V	2.0 1.5 0.8 0.0 2.0 1.5	gɔn̪+d̪i	0	32	Back:32
51892	37_back	Back	THAMI	THAMI	lu-ku-šā	lu-ku-šā	l u + k u + ʃ ʌː	than1259		28.7554	85.7657		5 7 9 1 7 9 3 7	AX_AX_AX	LY_KY_SE	145	145.L.C 145.Y.V 145._._ 145.K.C 145.Y.V 145._._ 145.S.C 145.E.V	2.0 1.5 0.0 2.0 1.5 0.0 2.0 1.5	lu+ku+ʃʌː	0	45	Back:45
51893	37_back	Back	LIMBU	LIMBU	ēg	ēg	eː g	limb1266		27.2703	87.8859		7 1	XN	EK	77	77.E.V 77.K.c	1.5 0.8	eːg	0	33	Back:33
51894	37_back	Back	YAKHA	YAKHA	mis-siṅ	mis-siṅ	m i s + s i ŋ	yakk1236		27.3714	87.9306		4 7 3 9 3 7 4	AXN_AXN	MIS_SIN	155	155.M.C 155.I.V 155.S.c 155._._ 155.S.C 155.I.V 155.N.c	2.0 1.5 0.8 0.0 2.0 1.5 0.8	mis+siŋ	0	44	Back:44
51895	37_back	Back	KHAMBU	KHAMBU	do-si	do-si	d̪ o + s i	kham1288					1 7 9 3 7	AX_AX	TU_SI	60	60.T.C 60.U.V 60._._ 60.S.C 60.I.V	2.0 1.5 0.0 2.0 1.5	d̪o+si	0	39	Back:39
51896	37_back	Back	BAHING	BAHING	chiṅ	chiṅ	tʃ i ŋ	bahi1252		27.3323	86.3949		1 7 4	AXN	TIN	10	10.T.C 10.I.V 10.N.c	2.0 1.5 0.8	tʃiŋ	0	33	Back:33
51897	37_back	Back	RAIORJIMDAR	RAI_OR_JIMDAR	ch’um-ru	ch’um-ru	tʃʱ u m + r u	athp1241		26.8794	87.3296		1 7 4 9 5 7	AXN_AX	TYM_RY	117	117.T.C 117.Y.V 117.M.c 117._._ 117.R.C 117.Y.V	2.0 1.5 0.8 0.0 2.0 1.5	tʃʱum+ru	0	46	Back:46
51898	37_back	Back	VAYUORHAYU	VAYU_OR_HAYU	sē̃-ti	sē̃-ti	s ẽː + t̪ i	wayu1241		27.3047	86.1227		3 7 9 1 7	AX_AX	SE_TI	151	151.S.C 151.E.V 151._._ 151.T.C 151.I.V	2.0 1.5 0.0 2.0 1.5	sẽː+t̪i	0	46	Back:46
51899	37_back	Back	GURUNG	GURUNG	g’o	g’o	gʱ o	east2345		28.4368	84.58145		1 7	AX	KU	42	42.K.C 42.U.V	2.0 1.5	gʱo	0	40	Back:40
51900	37_back	Back	MURMI	MURMI	ch’ig-mā	ch’ig-mā	tʃʱ i g + m ʌː	west2415		28.0239	85.0563		1 7 1 9 4 7	AXN_AX	TIK_ME	102	102.T.C 102.I.V 102.K.c 102._._ 102.M.C 102.E.V	2.0 1.5 0.8 0.0 2.0 1.5	tʃʱig+mʌː	0	33	Back:33
51901	37_back	Back	SUNWAR	SUNWAR	no-le	no-le	n̪ o + l e	sunw1242		27.5201	86.2476		4 7 9 5 7	AX_AX	NU_LE	134	134.N.C 134.U.V 134._._ 134.L.C 134.E.V	2.0 1.5 0.0 2.0 1.5	n̪o+le	0	34	Back:34
51902	37_back	Back	MAGARI	MAGARI	mi-chār-di	mi-chār-di	m i + tʃ ʌː r + d̪ i	west2418		28.2462	83.511		4 7 9 1 7 5 9 1 7	AX_AXN_AX	MI_TER_TI	84	84.M.C 84.I.V 84._._ 84.T.C 84.E.V 84.R.c 84._._ 84.T.C 84.I.V	2.0 1.5 0.0 2.0 1.5 0.8 0.0 2.0 1.5	mi+tʃʌːr+d̪i	0	48	Back:48
51903	37_back	Back	NEWARI	NEWARI	jaṇḍ’u	jaṇḍ’u	dʑ ʌ ɳ ɖʱ u	newa1246		27.2614	84.9577		2 7 4 1 7	AXMBZ	CENTY	105	105.C.C 105.E.V 105.N.c 105.T.C 105.Y.V	2.0 1.5 1.1 1.75 0.8	dʑʌɳɖʱu	0	33	Back:33
51904	37_back	Back	PADIPAHRIORPAHI	PADI_PAHRI_OR_PAHI	d’u-sā	d’u-sā	d̪ʱ u + s ʌː	newa1246		27.2614	84.9577		1 7 9 3 7	AX_AX	TY_SE	108	108.T.C 108.Y.V 108._._ 108.S.C 108.E.V	2.0 1.5 0.0 2.0 1.5	d̪ʱu+sʌː	0	39	Back:39
51905	37_back	Back	RONGORLEPCHA	RONG_OR_LEPCHA	ta-gūm	ta-gūm	t̪ ʌ + g uː m	lepc1244		27.0869	88.5726		1 7 9 1 7 4	AX_AXN	TE_KYM	121	121.T.C 121.E.V 121._._ 121.K.C 121.Y.V 121.M.c	2.0 1.5 0.0 2.0 1.5 0.8	t̪ʌ+guːm	0	39	Back:39
51906	37_back	Back	TOTO	TOTO	ju°-mā	ju°-mā	dʑ u + + m ʌː	toto1302		26.67	88.975		2 7 9 9 4 7	AX__AX	CY__ME	150	150.C.C 150.Y.V 150._._ 150._._ 150.M.C 150.E.V	2.0 1.5 0.0 0.0 2.0 1.5	dʑu++mʌː	0	36	Back:36
51908	37_back	Back	ABOR	ABOR	lām-kū	lām-kū	l ʌː m + k uː	bori1243		27.62812	94.3538		5 7 4 9 1 7	AXN_AX	LEM_KY	1	1.L.C 1.E.V 1.M.c 1._._ 1.K.C 1.Y.V	2.0 1.5 0.8 0.0 2.0 1.5	lʌːm+kuː	0	32	Back:32
51909	37_back	Back	MIRI	MIRI	lām-kū	lām-kū	l ʌː m + k uː	misi1242		27.418	94.69		5 7 4 9 1 7	AXN_AX	LEM_KY	95	95.L.C 95.E.V 95.M.c 95._._ 95.K.C 95.Y.V	2.0 1.5 0.8 0.0 2.0 1.5	lʌːm+kuː	0	32	Back:32
51910	37_back	Back	DAFLA	DAFLA	lānk	lānk	l ʌː n̪ k	nyis1236		27.278263	93.675529		5 7 4 1	AXLN	LENK	31	31.L.C 31.E.V 31.N.c 31.K.c	2.0 1.5 1.1 0.8	lʌːn̪k	0	37	Back:37
51911	37_back	Back	MISHMIDIGARU	MISHMI_DIGARU	mpliṅ	mpliṅ	m p l i ŋ	diga1241		28.4993	96.8803		4 1 5 7 4	ACCYN	MPLIN	96	96.M.C 96.P.C 96.L.C 96.I.V 96.N.c	2.0 1.5 1.5 1.3 0.8	mpliŋ	0	37	Back:37
51912	37_back	Back	MIJU	MIJU	glok	glok	g l o k	miju1243		28.4732	97.0444		1 5 7 1	ACXN	KLUK	93	93.K.C 93.L.C 93.U.V 93.K.c	2.0 1.5 1.5 0.8	glok	0	32	Back:32
51913	37_back	Back	SIHIA	SI_HIA	ṅo	ṅo	ŋ o	tang1334		38.894904	102.246464		4 7	AX	NU	129	129.N.C 129.U.V	2.0 1.5	ŋo	0	34	Back:34
51914	37_back	Back	LOLONI	LOLO_NI	˦˨ kiä ˦˨ di	˦˨ kiä ˦˨ di	⁴² + k i ɛ + ⁴² + d̪ i	axiy1235		24.6009	103.713		8 9 1 7 7 9 8 9 1 7	T_AXZ_T_AX	3_KIE_3_TI	81	81.3.T 81._._ 81.K.C 81.I.V 81.E.V 81._._ 81.3.T 81._._ 81.T.C 81.I.V	1.0 0.0 1.6 3.0 0.7 0.0 1.0 0.0 1.6 3.0	⁴²+kiɛ+⁴²+d̪i	0	46	Back:46
51916	37_back	Back	AKAKA	A_KA_KA	nàkà̃	nàkà̃	n̪ a k ã	akha1245		21.2309	100.964		4 7 1 7	AXBZ	NAKA	3	3.N.C 3.A.V 3.K.C 3.A.V	2.0 1.5 1.75 0.8	n̪akã	0	34	Back:34
51917	37_back	Back	LISU	LISU	˧ kà ˧ kå	˧ kà ˧ kå	³ + k a + ³ + k ɔ	lisu1250		26.91	98.94		8 9 1 7 9 8 9 1 7	T_AX_T_AX	6_KA_6_KU	79	79.6.T 79._._ 79.K.C 79.A.V 79._._ 79.6.T 79._._ 79.K.C 79.U.V	1.0 0.0 1.6 3.0 0.0 1.0 0.0 1.6 3.0	³+ka+³+kɔ	0	32	Back:32
51918	37_back	Back	LISHAOYAOYIN	LISHAO_YAOYIN	dzudzö	dzudzö	dz u dz ø	lisu1250		26.91	98.94		2 7 2 7	AXBZ	CYCU	78	78.C.C 78.Y.V 78.C.C 78.U.V	2.0 1.5 1.75 0.8	dzudzø	0	33	Back:33
51919	37_back	Back	MOSHO	MO_SHO	gösē	gösē	g ø s eː	lahu1253		21.2701	100.214		1 7 3 7	AXBZ	KUSE	100	100.K.C 100.U.V 100.S.C 100.E.V	2.0 1.5 1.75 0.8	gøseː	0	33	Back:33
51920	37_back	Back	NUNG	NUNG	rᵃgü	rᵃgü	r ă g y	nung1282		27.2887	98.7333		5 7 1 7	AXBZ	RAKY	106	106.R.C 106.A.V 106.K.C 106.Y.V	2.0 1.5 1.75 0.8	răgy	0	40	Back:40
51921	37_back	Back	BHOTIATIBETANWRITTEN	BHOTIA_TIBETAN_WRITTEN	rgyab	rgyab	r gʲ ʌ b	sikk1242		27.85795	88.59153		5 1 7 1	ACYN	RKEP	16	16.R.C 16.K.C 16.E.V 16.P.c	2.0 1.5 1.3 0.8	rgʲʌb	0	40	Back:40
51923	37_back	Back	BALTI	BALTI	šul	šul	ʃ u l	balt1258		34.4491	77.2859		3 7 5	AXN	SYL	12	12.S.C 12.Y.V 12.L.c	2.0 1.5 0.8	ʃul	0	38	Back:38
51924	37_back	Back	BHOTIAOFPURIK	BHOTIA_OF_PURIK	rgyap	rgyap	r gʲ ʌ p	puri1258		34.3386	76.0127		5 1 7 1	ACYN	RKEP	15	15.R.C 15.K.C 15.E.V 15.P.c	2.0 1.5 1.3 0.8	rgʲʌp	0	40	Back:40
51925	37_back	Back	LADAKHI	LADAKHI	rgyap	rgyap	r gʲ ʌ p	lada1244		33.468	80.6013		5 1 7 1	ACYN	RKEP	69	69.R.C 69.K.C 69.E.V 69.P.c	2.0 1.5 1.3 0.8	rgʲʌp	0	40	Back:40
51926	37_back	Back	LADAKHIOFSPITI	LADAKHI_OF_SPITI	gyap	gyap	gʲ ʌ p	spit1240		32.526	77.833		1 7 1	AXN	KEP	70	70.K.C 70.E.V 70.P.c	2.0 1.5 0.8	gʲʌp	0	40	Back:40
51927	37_back	Back	KAGATE	KAGATE	kyap	kyap	kʲ ʌ p	kaga1252		27.4492	86.1675		1 7 1	AXN	KEP	53	53.K.C 53.E.V 53.P.c	2.0 1.5 0.8	kʲʌp	0	40	Back:40
51928	37_back	Back	SHARPA	SHARPA	gyap	gyap	gʲ ʌ p	sher1255		27.674	86.9994		1 7 1	AXN	KEP	127	127.K.C 127.E.V 127.P.c	2.0 1.5 0.8	gʲʌp	0	40	Back:40
51929	37_back	Back	DANJONGKA	DANJONGKA	gyap	gyap	gʲ ʌ p	sikk1242		27.85795	88.59153		1 7 1	AXN	KEP	32	32.K.C 32.E.V 32.P.c	2.0 1.5 0.8	gʲʌp	0	40	Back:40
51930	37_back	Back	HLOKE	HLOKE	gep	gep	g e p	lowa1242		29.0324	83.8959		1 7 1	AXN	KEP	47	47.K.C 47.E.V 47.P.c	2.0 1.5 0.8	gep	0	40	Back:40
51931	37_back	Back	BODOORBARA	BODO_OR_BARA	bi-k’uṅ	bi-k’uṅ	b i + kʱ u ŋ	bodo1269		26.1	92.0		1 7 9 1 7 4	AX_AXN	PI_KYN	17	17.P.C 17.I.V 17._._ 17.K.C 17.Y.V 17.N.c	2.0 1.5 0.0 2.0 1.5 0.8	bi+kʱuŋ	0	32	Back:32
51932	37_back	Back	LALUNG	LALUNG	lāṅgal-pāt’i	lāṅgal-pāt’i	l ʌː ŋ g ʌ l + p ʌː t̪ʱ i	tiwa1253		26.0667	92.2583		5 7 4 1 7 5 9 1 7 1 7	AXMBYN_AXBZ	LENKEL_PETI	73	73.L.C 73.E.V 73.N.c 73.K.C 73.E.V 73.L.c 73._._ 73.P.C 73.E.V 73.T.C 73.I.V	2.0 1.5 1.1 1.75 1.3 0.8 0.0 2.0 1.5 1.75 0.8	lʌːŋgʌl+pʌːt̪ʱi	0	47	Back:47
51933	37_back	Back	DIMASA	DIMA_SA	šī-ma	šī-ma	ʃ iː + m ʌ	dima1251		25.4198	93.1806		3 7 9 4 7	AX_AX	SI_ME	36	36.S.C 36.I.V 36._._ 36.M.C 36.E.V	2.0 1.5 0.0 2.0 1.5	ʃiː+mʌ	0	36	Back:36
51934	37_back	Back	GAROACHIK	GARO_ACHIK	jāṅ-gil	jāṅ-gil	dʑ ʌː ŋ + g i l	garo1247		25.2954	90.462		2 7 4 9 1 7 5	AXN_AXN	CEN_KIL	40	40.C.C 40.E.V 40.N.c 40._._ 40.K.C 40.I.V 40.L.c	2.0 1.5 0.8 0.0 2.0 1.5 0.8	dʑʌːŋ+gil	0	32	Back:32
51935	37_back	Back	KOCH	KOCH	jāṅul	jāṅul	dʑ ʌː ŋ u l	koch1250		25.7962	90.2566		2 7 4 7 5	AXBYN	CENYL	64	64.C.C 64.E.V 64.N.C 64.Y.V 64.L.c	2.0 1.5 1.75 1.3 0.8	dʑʌːŋul	0	33	Back:33
51936	37_back	Back	TIPURA	TIPURA	fi-kuṅ	fi-kuṅ	f i + k u ŋ	kokb1239		23.1916	91.4673		3 7 9 1 7 4	AX_AXN	BI_KYN	149	149.B.C 149.I.V 149._._ 149.K.C 149.Y.V 149.N.c	2.0 1.5 0.0 2.0 1.5 0.8	fi+kuŋ	0	32	Back:32
51937	37_back	Back	DEURICHUTIYA	DEURI_CHUTIYA	imāri	imāri	i m ʌː r i	deor1238		26.86152	93.70572		7 4 7 5 7	XBYBZ	IMERI	34	34.I.V 34.M.C 34.E.V 34.R.C 34.I.V	1.5 1.75 1.3 1.75 0.8	imʌːri	0	37	Back:37
51938	37_back	Back	ANGAMI	ANGAMI	chē	chē	tʃ eː	anga1288		25.6841	93.8668		1 7	AX	TE	7	7.T.C 7.E.V	2.0 1.5	tʃeː	0	33	Back:33
51939	37_back	Back	ANGAMI	ANGAMI	nā-ku	nā-ku	n̪ ʌː + k u	anga1288		25.6841	93.8668		4 7 9 1 7	AX_AX	NE_KY	7	7.N.C 7.E.V 7._._ 7.K.C 7.Y.V	2.0 1.5 0.0 2.0 1.5	n̪ʌː+ku	0	34	Back:34
51940	37_back	Back	SEMA	SEMA	(a-)ki-che	ki-che	k i + tʃ e	sumi1235		25.9996	94.4235		1 7 9 1 7	AX_AX	KI_TE	124	124.K.C 124.I.V 124._._ 124.T.C 124.E.V	2.0 1.5 0.0 2.0 1.5	ki+tʃe	0	46	Back:46
51941	37_back	Back	RENGMA	RENGMA	nsē	nsē	n̪ s eː	nort2725		26.4492	94.5683		4 3 7	ACZ	NSE	119	119.N.C 119.S.C 119.E.V	2.0 1.5 0.8	n̪seː	0	34	Back:34
51942	37_back	Back	KEZAMA	KEZAMA	ke-chē	ke-chē	k e + tʃ eː	khez1235		25.7078	94.3114		1 7 9 1 7	AX_AX	KE_TE	58	58.K.C 58.E.V 58._._ 58.T.C 58.E.V	2.0 1.5 0.0 2.0 1.5	ke+tʃeː	0	46	Back:46
51943	37_back	Back	SOPVOMA	SOPVOMA	(u-)pfē	pfē	p f eː	maon1238		25.3836	94.0035		1 3 7	ACX	PBE	133	133.P.C 133.B.C 133.E.V	2.0 1.5 1.5	pfeː	0	35	Back:35
51944	37_back	Back	AO	AO	te-roṅtoṅ	te-roṅtoṅ	t̪ e + r o ŋ t̪ o ŋ	aona1235		26.3241	94.3824		1 7 9 5 7 4 1 7 4	AX_AXMBYN	TE_RUNTUN	8	8.T.C 8.E.V 8._._ 8.R.C 8.U.V 8.N.c 8.T.C 8.U.V 8.N.c	2.0 1.5 0.0 2.0 1.5 1.1 1.75 1.3 0.8	t̪e+roŋt̪oŋ	0	33	Back:33
51945	37_back	Back	HLOTA	HLOTA	mānkū	mānkū	m ʌː n̪ k uː	loth1237		26.01396	94.04355		4 7 4 1 7	AXMBZ	MENKY	48	48.M.C 48.E.V 48.N.c 48.K.C 48.Y.V	2.0 1.5 1.1 1.75 0.8	mʌːn̪kuː	0	37	Back:37
51946	37_back	Back	HLOTA	HLOTA	sīlāmwē	sīlāmwē	s iː l ʌː m w eː	loth1237		26.01396	94.04355		3 7 5 7 4 6 7	AXBYBCZ	SILEMWE	48	48.S.C 48.I.V 48.L.C 48.E.V 48.M.C 48.W.C 48.E.V	2.0 1.5 1.75 1.3 1.75 1.5 0.8	siːlʌːmweː	0	50	Back:50
51947	37_back	Back	TENGSA	TENGSA	ta-lam	ta-lam	t̪ ʌ + l ʌ m	tase1235		27.2572	96.3855		1 7 9 5 7 4	AX_AXN	TE_LEM	143	143.T.C 143.E.V 143._._ 143.L.C 143.E.V 143.M.c	2.0 1.5 0.0 2.0 1.5 0.8	t̪ʌ+lʌm	0	32	Back:32
51948	37_back	Back	THUKUMI	THUKUMI	roṅ	roṅ	r o ŋ	sang1321		25.8581	94.6279		5 7 4	AXN	RUN	147	147.R.C 147.U.V 147.N.c	2.0 1.5 0.8	roŋ	0	37	Back:37
51949	37_back	Back	YACHUMI	YACHUMI	ruṅ	ruṅ	r u ŋ	yimc1240		25.7675	94.8087		5 7 4	AXN	RYN	154	154.R.C 154.Y.V 154.N.c	2.0 1.5 0.8	ruŋ	0	37	Back:37
51950	37_back	Back	TABLENG	TABLENG	tok-p’ai	tok-p’ai	t̪ o k + pʱ ai	kony1248		26.6823	95.0598		1 7 1 9 1 7	AXN_AX	TUK_PA	136	136.T.C 136.U.V 136.K.c 136._._ 136.P.C 136.A.V	2.0 1.5 0.8 0.0 2.0 1.5	t̪ok+pʱai	0	33	Back:33
51951	37_back	Back	TAMLU	TAMLU	tok	tok	t̪ o k	phom1236		26.4715	94.7476		1 7 1	AXN	TUK	137	137.T.C 137.U.V 137.K.c	2.0 1.5 0.8	t̪ok	0	33	Back:33
51952	37_back	Back	BANPARA	BANPARA	tå-ki	tå-ki	t̪ ɔ + k i	wanc1238		26.2581	94.8936		1 7 9 1 7	AX_AX	TU_KI	14	14.T.C 14.U.V 14._._ 14.K.C 14.I.V	2.0 1.5 0.0 2.0 1.5	t̪ɔ+ki	0	39	Back:39
51953	37_back	Back	NAMSANGIA	NAMSANGIA	tām	tām	t̪ ʌː m	noct1238		27.152	95.3903		1 7 4	AXN	TEM	104	104.T.C 104.E.V 104.M.c	2.0 1.5 0.8	t̪ʌːm	0	33	Back:33
51954	37_back	Back	CHANG	CHANG	tāk	tāk	t̪ ʌː k	chan1313		26.4336	94.9536		1 7 1	AXN	TEK	24	24.T.C 24.E.V 24.K.c	2.0 1.5 0.8	t̪ʌːk	0	33	Back:33
51955	37_back	Back	CHANG	CHANG	t’āk	t’āk	t̪ʱ ʌː k	chan1313		26.4336	94.9536		1 7 1	AXN	TEK	24	24.T.C 24.E.V 24.K.c	2.0 1.5 0.8	t̪ʱʌːk	0	33	Back:33
51956	37_back	Back	EMPEO	EMPEO	mi-siṅ	mi-siṅ	m i + s i ŋ	zeme1240		25.3499	93.6463		4 7 9 3 7 4	AX_AXN	MI_SIN	39	39.M.C 39.I.V 39._._ 39.S.C 39.I.V 39.N.c	2.0 1.5 0.0 2.0 1.5 0.8	mi+siŋ	0	44	Back:44
51957	37_back	Back	KABUI	KABUI	t’eṅ	t’eṅ	t̪ʱ e ŋ	rong1266		25.098	93.7869		1 7 4	AXN	TEN	51	51.T.C 51.E.V 51.N.c	2.0 1.5 0.8	t̪ʱeŋ	0	33	Back:33
51958	37_back	Back	KHOIRAO	KHOIRAO	asēn	asēn	ʌ s eː n̪	than1255		25.3472	93.8396		7 3 7 4	XBYN	ESEN	63	63.E.V 63.S.C 63.E.V 63.N.c	1.5 1.75 1.3 0.8	ʌseːn̪	0	33	Back:33
51959	37_back	Back	MIKIR	MIKIR	ā-nuṅ	ā-nuṅ	ʌː + n̪ u ŋ	karb1241		25.7317	93.0462		7 9 4 7 4	X_AXN	E_NYN	94	94.E.V 94._._ 94.N.C 94.Y.V 94.N.c	1.5 0.0 2.0 1.5 0.8	ʌː+n̪uŋ	0	34	Back:34
51960	37_back	Back	MARAM	MARAM	ā-pau	ā-pau	ʌː + p au	mara1379		25.4378	94.2205		7 9 1 7	X_AX	E_PA	89	89.E.V 89._._ 89.P.C 89.A.V	1.5 0.0 2.0 1.5	ʌː+pau	0	35	Back:35
51961	37_back	Back	KWOIRENG	KWOIRENG	chā-ṅūm	chā-ṅūm	tʃ ʌː + ŋ uː m	lian1251		25.16	93.542		1 7 9 4 7 4	AX_AXN	TE_NYM	68	68.T.C 68.E.V 68._._ 68.N.C 68.Y.V 68.M.c	2.0 1.5 0.0 2.0 1.5 0.8	tʃʌː+ŋuːm	0	34	Back:34
51962	37_back	Back	KWOIRENG	KWOIRENG	tā-tiṅ	tā-tiṅ	t̪ ʌː + t̪ i ŋ	lian1251		25.16	93.542		1 7 9 1 7 4	AX_AXN	TE_TIN	68	68.T.C 68.E.V 68._._ 68.T.C 68.I.V 68.N.c	2.0 1.5 0.0 2.0 1.5 0.8	t̪ʌː+t̪iŋ	0	33	Back:33
51963	37_back	Back	TANGKHUL	TANGKHUL	k’um-k’or	k’um-k’or	kʱ u m + kʱ o r	ukhr1238					1 7 4 9 1 7 5	AXN_AXN	KYM_KUR	138	138.K.C 138.Y.V 138.M.c 138._._ 138.K.C 138.U.V 138.R.c	2.0 1.5 0.8 0.0 2.0 1.5 0.8	kʱum+kʱor	0	32	Back:32
51964	37_back	Back	PHADANG	PHADANG	dūk-dēü	dūk-dēü	d̪ uː k + d̪ eː y	phad1238					1 7 1 9 1 7 7	AXN_AXZ	TYK_TEY	110	110.T.C 110.Y.V 110.K.c 110._._ 110.T.C 110.E.V 110.Y.V	2.0 1.5 0.8 0.0 2.0 1.5 0.8	d̪uːk+d̪eːy	0	33	Back:33
51965	37_back	Back	KHANGOI	KHANGOI	ā-nā	ā-nā	ʌː + n̪ ʌː	khan1277		25.73633	94.247299		7 9 4 7	X_AX	E_NE	62	62.E.V 62._._ 62.N.C 62.E.V	1.5 0.0 2.0 1.5	ʌː+n̪ʌː	0	34	Back:34
51966	37_back	Back	MARING	MARING	nam-kal	nam-kal	n̪ ʌ m + k ʌ l	mari1416		24.2854	94.0723		4 7 4 9 1 7 5	AXN_AXN	NEM_KEL	90	90.N.C 90.E.V 90.M.c 90._._ 90.K.C 90.E.V 90.L.c	2.0 1.5 0.8 0.0 2.0 1.5 0.8	n̪ʌm+kʌl	0	32	Back:32
51967	37_back	Back	CHINGPAORKACHIN	CHINGPA_OR_KACHIN	mᵃši	mᵃši	m ă ʃ i	kach1280		25.4634	97.3278		4 7 3 7	AXBZ	MASI	29	29.M.C 29.A.V 29.S.C 29.I.V	2.0 1.5 1.75 0.8	măʃi	0	33	Back:33
51968	37_back	Back	CHINGPAORKACHIN	CHINGPA_OR_KACHIN	mᵃruṅ	mᵃruṅ	m ă r u ŋ	kach1280		25.4634	97.3278		4 7 5 7 4	AXBYN	MARYN	29	29.M.C 29.A.V 29.R.C 29.Y.V 29.N.c	2.0 1.5 1.75 1.3 0.8	măruŋ	0	37	Back:37
51970	37_back	Back	SINGPHO	SINGPHO	siṅ-māṅ	siṅ-māṅ	s i ŋ + m ʌː ŋ	sing1264		27.296	95.606		3 7 4 9 4 7 4	AXN_AXN	SIN_MEN	130	130.S.C 130.I.V 130.N.c 130._._ 130.M.C 130.E.V 130.N.c	2.0 1.5 0.8 0.0 2.0 1.5 0.8	siŋ+mʌːŋ	0	36	Back:36
51972	37_back	Back	MEITHEI	MEITHEI	nam-gan	nam-gan	n̪ ʌ m + g ʌ n̪	mani1292		24.4409	93.3426		4 7 4 9 1 7 4	AXN_AXN	NEM_KEN	92	92.N.C 92.E.V 92.M.c 92._._ 92.K.C 92.E.V 92.N.c	2.0 1.5 0.8 0.0 2.0 1.5 0.8	n̪ʌm+gʌn̪	0	32	Back:32
51973	37_back	Back	THADO	THADO	tūṅ-dūn	tūṅ-dūn	t̪ uː ŋ + d̪ uː n̪	thad1238		24.096	93.722		1 7 4 9 1 7 4	AXN_AXN	TYN_TYN	144	144.T.C 144.Y.V 144.N.c 144._._ 144.T.C 144.Y.V 144.N.c	2.0 1.5 0.8 0.0 2.0 1.5 0.8	t̪uːŋ+d̪uːn̪	0	33	Back:33
51974	37_back	Back	SIYIN	SIYIN	nūṅ	nūṅ	n̪ uː ŋ	siyi1240		23.8192	93.6884		4 7 4	AXN	NYN	132	132.N.C 132.Y.V 132.N.c	2.0 1.5 0.8	n̪uːŋ	0	34	Back:34
51975	37_back	Back	LAI	LAI	kuṅ	kuṅ	k u ŋ	haka1240		22.8735	92.8208		1 7 4	AXN	KYN	72	72.K.C 72.Y.V 72.N.c	2.0 1.5 0.8	kuŋ	0	32	Back:32
51976	37_back	Back	LUSHEI	LUSHEI	hnuṅ-zāṅ	hnuṅ-zāṅ	h n̪ u ŋ + z ʌː ŋ	lush1249		22.6138	92.6247		3 4 7 4 9 3 7 4	ACXN_AXN	HNYN_SEN	83	83.H.C 83.N.C 83.Y.V 83.N.c 83._._ 83.S.C 83.E.V 83.N.c	2.0 1.5 1.5 0.8 0.0 2.0 1.5 0.8	hn̪uŋ+zʌːŋ	0	36	Back:36
51977	37_back	Back	BANJOGI	BANJOGI	kēin	kēin	k eː i n̪	zotu1235		22.5298	93.29		1 7 7 4	AXYN	KEIN	13	13.K.C 13.E.V 13.I.V 13.N.c	2.0 1.5 1.3 0.8	keːin̪	0	32	Back:32
51978	37_back	Back	PANKHU	PANKHU	kā-nūṅ	kā-nūṅ	k ʌː + n̪ uː ŋ	pank1249		22.6797	92.9461		1 7 9 4 7 4	AX_AXN	KE_NYN	109	109.K.C 109.E.V 109._._ 109.N.C 109.Y.V 109.N.c	2.0 1.5 0.0 2.0 1.5 0.8	kʌː+n̪uːŋ	0	34	Back:34
51979	37_back	Back	HRANGKHOL	HRANGKHOL	rūöṅ	rūöṅ	r uː ø ŋ	hran1239		24.4559	93.351		5 7 7 4	AXYN	RYUN	49	49.R.C 49.Y.V 49.U.V 49.N.c	2.0 1.5 1.3 0.8	ruːøŋ	0	37	Back:37
51980	37_back	Back	HALLAM	HALLAM	rūoṅ	rūoṅ	r uː o ŋ	fala1243		23.7892833333	92.3254633333		5 7 7 4	AXYN	RYUN	45	45.R.C 45.Y.V 45.U.V 45.N.c	2.0 1.5 1.3 0.8	ruːoŋ	0	37	Back:37
51981	37_back	Back	LANGRONG	LANGRONG	rūaṅ	rūaṅ	r uː ʌ ŋ	lang1312					5 7 7 4	AXYN	RYEN	75	75.R.C 75.Y.V 75.E.V 75.N.c	2.0 1.5 1.3 0.8	ruːʌŋ	0	37	Back:37
51982	37_back	Back	AIMOL	AIMOL	tiṅ	tiṅ	t̪ i ŋ	aimo1244		24.6437	94.3556		1 7 4	AXN	TIN	2	2.T.C 2.I.V 2.N.c	2.0 1.5 0.8	t̪iŋ	0	33	Back:33
51983	37_back	Back	CHIRU	CHIRU	karrnam	karrnam	k ʌ r r n̪ ʌ m	chir1283		25.4643	94.4072		1 7 5 5 4 7 4	AXLMBYN	KERRNEM	30	30.K.C 30.E.V 30.R.c 30.R.c 30.N.C 30.E.V 30.M.c	2.0 1.5 1.1 1.1 1.75 1.3 0.8	kʌrrn̪ʌm	0	43	Back:43
51984	37_back	Back	KOLHRENG	KOLHRENG	a-tiṅ	a-tiṅ	ʌ + t̪ i ŋ	kolh1240					7 9 1 7 4	X_AXN	E_TIN	65	65.E.V 65._._ 65.T.C 65.I.V 65.N.c	1.5 0.0 2.0 1.5 0.8	ʌ+t̪iŋ	0	33	Back:33
51985	37_back	Back	KOM	KOM	ka-t’ūm	ka-t’ūm	k ʌ + t̪ʱ uː m	komi1270		24.8688	94.534		1 7 9 1 7 4	AX_AXN	KE_TYM	66	66.K.C 66.E.V 66._._ 66.T.C 66.Y.V 66.M.c	2.0 1.5 0.0 2.0 1.5 0.8	kʌ+t̪ʱuːm	0	46	Back:46
51986	37_back	Back	PURUM	PURUM	tiṅ	tiṅ	t̪ i ŋ	puru1266		25.3887	95.0935		1 7 4	AXN	TIN	112	112.T.C 112.I.V 112.N.c	2.0 1.5 0.8	t̪iŋ	0	33	Back:33
51987	37_back	Back	ANAL	ANAL	ka-paṅ	ka-paṅ	k ʌ + p ʌ ŋ	anal1239		24.0506	94.2806		1 7 9 1 7 4	AX_AXN	KE_PEN	5	5.K.C 5.E.V 5._._ 5.P.C 5.E.V 5.N.c	2.0 1.5 0.0 2.0 1.5 0.8	kʌ+pʌŋ	0	35	Back:35
51988	37_back	Back	HIROILAMGANG	HIROI_LAMGANG	a-paṅ	a-paṅ	ʌ + p ʌ ŋ	lamk1238		24.1523	94.2706		7 9 1 7 4	X_AXN	E_PEN	46	46.E.V 46._._ 46.P.C 46.E.V 46.N.c	1.5 0.0 2.0 1.5 0.8	ʌ+pʌŋ	0	35	Back:35
51989	37_back	Back	TAUNGTHA	TAUNGTHA	kuṅ-ru	kuṅ-ru	k u ŋ + r u	paok1235		20.211	97.5969		1 7 4 9 5 7	AXN_AX	KYN_RY	139	139.K.C 139.Y.V 139.N.c 139._._ 139.R.C 139.Y.V	2.0 1.5 0.8 0.0 2.0 1.5	kuŋ+ru	0	32	Back:32
51990	37_back	Back	CHINBON	CHINBON	à-hlaiṅ	à-hlaiṅ	a + h l ai ŋ	chin1478		20.0776	94.0506		7 9 3 5 7 4	X_ACXN	A_HLAN	28	28.A.V 28._._ 28.H.C 28.L.C 28.A.V 28.N.c	1.5 0.0 2.0 1.5 1.5 0.8	a+hlaiŋ	0	42	Back:42
51991	37_back	Back	THAYETMYOCHIN	THAYETMYO_CHIN	ᵃhliṅ	ᵃhliṅ	ă h l i ŋ	thay1247					7 3 5 7 4	XBCYN	AHLIN	146	146.A.V 146.H.C 146.L.C 146.I.V 146.N.c	1.5 1.75 1.5 1.3 0.8	ăhliŋ	0	42	Back:42
51992	37_back	Back	SHOORKHYANG	SHO_OR_KHYANG	a-hliṅ	a-hliṅ	ʌ + h l i ŋ	asho1236		21.393	93.5069		7 9 3 5 7 4	X_ACXN	E_HLIN	128	128.E.V 128._._ 128.H.C 128.L.C 128.I.V 128.N.c	1.5 0.0 2.0 1.5 1.5 0.8	ʌ+hliŋ	0	42	Back:42
51993	37_back	Back	KHAMI	KHAMI	ṅiṅ-t’on (?)	ṅiṅ-t’on	ŋ i ŋ + t̪ʱ o n̪	kham1284					4 7 4 9 1 7 4	AXN_AXN	NIN_TUN	61	61.N.C 61.I.V 61.N.c 61._._ 61.T.C 61.U.V 61.N.c	2.0 1.5 0.8 0.0 2.0 1.5 0.8	ŋiŋ+t̪ʱon̪	0	36	Back:36
51994	37_back	Back	ANDRO	ANDRO	lo-mà	lo-mà	l o + m a	kadu1254					5 7 9 4 7	AX_AX	LU_MA	6	6.L.C 6.U.V 6._._ 6.M.C 6.A.V	2.0 1.5 0.0 2.0 1.5	lo+ma	0	36	Back:36
51995	37_back	Back	SENGMAI	SENGMAI	lū-bàl	lū-bàl	l uː + b a l	kadu1254					5 7 9 1 7 5	AX_AXN	LY_PAL	125	125.L.C 125.Y.V 125._._ 125.P.C 125.A.V 125.L.c	2.0 1.5 0.0 2.0 1.5 0.8	luː+bal	0	35	Back:35
51996	37_back	Back	CHAIREL	CHAIREL	yà-ṅel	yà-ṅel	j a + ŋ e l	chai1254		24.30438	93.866431		6 7 9 4 7 5	AX_AXN	JA_NEL	22	22.J.C 22.A.V 22._._ 22.N.C 22.E.V 22.L.c	2.0 1.5 0.0 2.0 1.5 0.8	ja+ŋel	0	34	Back:34
51997	37_back	Back	KADU	KADU	ka ˧ s’àṅ	ka ˧ s’àṅ	k ʌ + ³ + sʱ a ŋ	kadu1254					1 7 9 8 9 3 7 4	AX_T_AXN	KE_6_SAN	52	52.K.C 52.E.V 52._._ 52.6.T 52._._ 52.S.C 52.A.V 52.N.c	1.6 3.0 0.0 1.0 0.0 1.6 3.0 0.5	kʌ+³+sʱaŋ	0	44	Back:44
51998	37_back	Back	MARU	MARU	doṅ-koṅ	doṅ-koṅ	d̪ o ŋ + k o ŋ	maru1249		24.942535	99.8338		1 7 4 9 1 7 4	AXN_AXN	TUN_KUN	91	91.T.C 91.U.V 91.N.c 91._._ 91.K.C 91.U.V 91.N.c	2.0 1.5 0.8 0.0 2.0 1.5 0.8	d̪oŋ+koŋ	0	32	Back:32
51999	37_back	Back	MAINGTHAORNGACHANG	MAINGTHA_OR_NGACHANG	hu-luṅ	hu-luṅ	h u + l u ŋ	acha1249		24.3479	97.7438		3 7 9 5 7 4	AX_AXN	HY_LYN	85	85.H.C 85.Y.V 85._._ 85.L.C 85.Y.V 85.N.c	2.0 1.5 0.0 2.0 1.5 0.8	hu+luŋ	0	42	Back:42
52000	37_back	Back	PHUNSAMONG	PHUN_SAMONG	lä-tàṅ ᵃwu	lä-tàṅ ᵃwu	l ɛ + t̪ a ŋ + ă w u	hpon1238		24.4606	97.1142		5 7 9 1 7 4 9 7 6 7	AX_AXN_XBZ	LE_TAN_AWY	111	111.L.C 111.E.V 111._._ 111.T.C 111.A.V 111.N.c 111._._ 111.A.V 111.W.C 111.Y.V	2.0 1.5 0.0 2.0 1.5 0.8 0.0 1.5 1.75 0.8	lɛ+t̪aŋ+ăwu	0	33	Back:33
52002	37_back	Back	MRU	MRU	kūm	kūm	k uː m	mruu1242		24.154	90.6317		1 7 4	AXN	KYM	101	101.K.C 101.Y.V 101.M.c	2.0 1.5 0.8	kuːm	0	40	Back:40
52003	37_back	Back	BURMESEWRITTEN	BURMESE_WRITTEN	kro	kro	k r o	nucl1310		20.7926	93.9665		1 5 7	ACX	KRU	19	19.K.C 19.R.C 19.U.V	2.0 1.5 1.5	kro	0	32	Back:32
52005	37_back	Back	ARAKANESE	ARAKANESE	gruā	gruā	g r u ʌː	marm1234		22.759948	92.210748		1 5 7 7	ACXZ	KRYE	9	9.K.C 9.R.C 9.Y.V 9.E.V	2.0 1.5 1.5 0.8	gruʌː	0	37	Back:37
52006	37_back	Back	TAUNGYO	TAUNGYO	kyå	kyå	kʲ ɔ	taun1248		20.4104	96.7401		1 7	AX	KU	141	141.K.C 141.U.V	2.0 1.5	kʲɔ	0	40	Back:40
52007	37_back	Back	DANU	DANU	jå	jå	dʑ ɔ	danu1251					2 7	AX	CU	33	33.C.C 33.U.V	2.0 1.5	dʑɔ	0	33	Back:33
52008	37_back	Back	INTHA	INTHA	nauk ku jå	nauk ku jå	n̪ au k + k u + dʑ ɔ	inth1239					4 7 1 9 1 7 9 2 7	AXN_AX_AX	NAK_KY_CU	50	50.N.C 50.A.V 50.K.c 50._._ 50.K.C 50.Y.V 50._._ 50.C.C 50.U.V	2.0 1.5 0.8 0.0 2.0 1.5 0.0 2.0 1.5	n̪auk+ku+dʑɔ	0	45	Back:45
52009	37_back	Back	TAVOYAN	TAVOYAN	nǒᵗ jå	nǒᵗ jå	n̪ ɒ t̪̚ + dʑ ɔ	tavo1242		14.1078	98.194		4 7 1 9 2 7	AXN_AX	NOT_CU	142	142.N.C 142.O.V 142.T.c 142._._ 142.C.C 142.U.V	2.0 1.5 0.8 0.0 2.0 1.5	n̪ɒt̪̚+dʑɔ	0	36	Back:36
35849	138_beat	Beat	MANDARIN	MANDARIN	˨˦ tā	˨˦ tā	²⁴ + t̪ ʌː	mand1415		40.0209	116.228		8 9 1 7	T_AX	2_TE	87	87.2.T 87._._ 87.T.C 87.E.V	1.0 0.0 1.6 3.0	²⁴+t̪ʌː	0	53	Beat:53
35850	138_beat	Beat	CANTONESE	CANTONESE	˦˥ tā	˦˥ tā	⁴⁵ + t̪ ʌː	cant1236					8 9 1 7	T_AX	2_TE	21	21.2.T 21._._ 21.T.C 21.E.V	1.0 0.0 1.6 3.0	⁴⁵+t̪ʌː	0	53	Beat:53
35851	138_beat	Beat	GYAOMI	GYAOMI	tå	tå	t̪ ɔ	mand1415		40.0209	116.228		1 7	AX	TU	43	43.T.C 43.U.V	2.0 1.5	t̪ɔ	0	53	Beat:53
35861	138_beat	Beat	PWOLITERARY	PWO_LITERARY	= dō ˦ s’ī	= dō ˦ s’ī	+ + d̪ oː + ⁴ + sʱ iː	phra1235		18.0048	99.6382		9 9 1 7 9 8 9 3 7	__AX_T_AX	__TU_6_SI	114	114._._ 114._._ 114.T.C 114.U.V 114._._ 114.6.T 114._._ 114.S.C 114.I.V	0.0 0.0 1.6 3.0 0.0 1.0 0.0 1.6 3.0	++d̪oː+⁴+sʱiː	0	53	Beat:53
35862	138_beat	Beat	PWOLITERARY	PWO_LITERARY	˦ t’aṅ° ˦ s’ī	˦ t’aṅ° ˦ s’ī	⁴ + t̪ʱ ʌ ŋ + + ⁴ + sʱ iː	phra1235		18.0048	99.6382		8 9 1 7 4 9 9 8 9 3 7	T_AXN__T_AX	6_TEN__6_SI	114	114.6.T 114._._ 114.T.C 114.E.V 114.N.c 114._._ 114._._ 114.6.T 114._._ 114.S.C 114.I.V	1.0 0.0 1.6 3.0 0.5 0.0 0.0 1.0 0.0 1.6 3.0	⁴+t̪ʱʌŋ++⁴+sʱiː	0	53	Beat:53
35863	138_beat	Beat	PWOBASSEIN	PWO_BASSEIN	tà̃ du	tà̃ du	t̪ ã + d̪ u	pwow1235		17.3622	97.7044		1 7 9 1 7	AX_AX	TA_TY	113	113.T.C 113.A.V 113._._ 113.T.C 113.Y.V	2.0 1.5 0.0 2.0 1.5	t̪ã+d̪u	0	53	Beat:53
35864	138_beat	Beat	PWOMAULMEIN	PWO_MAULMEIN	tà̃	tà̃	t̪ ã	pwoe1235		15.1915	98.7355		1 7	AX	TA	115	115.T.C 115.A.V	2.0 1.5	t̪ã	0	53	Beat:53
35865	138_beat	Beat	TAUNGTHU	TAUNGTHU	twä	twä	t̪ w ɛ	paok1235		20.211	97.5969		1 6 7	ACX	TWE	140	140.T.C 140.W.C 140.E.V	2.0 1.5 1.5	t̪wɛ	0	52	Beat:52
35866	138_beat	Beat	SGALITERARY	SGA_LITERARY	˧ dō	˧ dō	³ + d̪ oː	sgaw1245		17.9872	97.7126		8 9 1 7	T_AX	6_TU	126	126.6.T 126._._ 126.T.C 126.U.V	1.0 0.0 1.6 3.0	³+d̪oː	0	53	Beat:53
35867	138_beat	Beat	SGALITERARY	SGA_LITERARY	˦˨ tå	˦˨ tå	⁴² + t̪ ɔ	sgaw1245		17.9872	97.7126		8 9 1 7	T_AX	3_TU	126	126.3.T 126._._ 126.T.C 126.U.V	1.0 0.0 1.6 3.0	⁴²+t̪ɔ	0	53	Beat:53
35872	138_beat	Beat	BWE	BWE	bö	bö	b ø	bwek1238		18.9796	96.9936		1 7	AX	PU	20	20.P.C 20.U.V	2.0 1.5	bø	0	51	Beat:51
35873	138_beat	Beat	BWE	BWE	dä	dä	d̪ ɛ	bwek1238		18.9796	96.9936		1 7	AX	TE	20	20.T.C 20.E.V	2.0 1.5	d̪ɛ	0	53	Beat:53
35874	138_beat	Beat	BWE	BWE	klà	klà	k l a	bwek1238		18.9796	96.9936		1 5 7	ACX	KLA	20	20.K.C 20.L.C 20.A.V	2.0 1.5 1.5	kla	0	51	Beat:51
35875	138_beat	Beat	BWE	BWE	plä	plä	p l ɛ	bwek1238		18.9796	96.9936		1 5 7	ACX	PLE	20	20.P.C 20.L.C 20.E.V	2.0 1.5 1.5	plɛ	0	51	Beat:51
35876	138_beat	Beat	BWE	BWE	θà	θà	θ a	bwek1238		18.9796	96.9936		3 7	AX	DA	20	20.D.C 20.A.V	2.0 1.5	θa	0	53	Beat:53
35877	138_beat	Beat	WEWAW	WEWAW	ɣä	ɣä	ɣ ɛ	wewa1238		19.020577	96.540526		3 7	AX	GE	153	153.G.C 153.E.V	2.0 1.5	ɣɛ	0	54	Beat:54
35878	138_beat	Beat	KARENBYU	KARENBYU	plä	plä	p l ɛ	geba1237		19.4991	96.9492		1 5 7	ACX	PLE	56	56.P.C 56.L.C 56.E.V	2.0 1.5 1.5	plɛ	0	51	Beat:51
35879	138_beat	Beat	BRAEO	BRAEO	bö	bö	b ø	geba1237		19.4991	96.9492		1 7	AX	PU	18	18.P.C 18.U.V	2.0 1.5	bø	0	51	Beat:51
35880	138_beat	Beat	BRAEO	BRAEO	blä	blä	b l ɛ	geba1237		19.4991	96.9492		1 5 7	ACX	PLE	18	18.P.C 18.L.C 18.E.V	2.0 1.5 1.5	blɛ	0	51	Beat:51
35881	138_beat	Beat	KARENNI	KARENNI	plyà	plyà	p l j a	east2342		19.8939	98.3359		1 5 6 7	ACCX	PLJA	57	57.P.C 57.L.C 57.J.C 57.A.V	2.0 1.5 1.5 1.5	plja	0	51	Beat:51
35882	138_beat	Beat	KARENNI	KARENNI	mö	mö	m ø	east2342		19.8939	98.3359		4 7	AX	MU	57	57.M.C 57.U.V	2.0 1.5	mø	0	55	Beat:55
35883	138_beat	Beat	KARENNI	KARENNI	bà	bà	b a	east2342		19.8939	98.3359		1 7	AX	PA	57	57.P.C 57.A.V	2.0 1.5	ba	0	51	Beat:51
35884	138_beat	Beat	YINTALAE	YINTALAE	mo	mo	m o	yint1235		18.9378	97.3368		4 7	AX	MU	158	158.M.C 158.U.V	2.0 1.5	mo	0	55	Beat:55
35885	138_beat	Beat	SINHMAOMAEPAUK	SIN_HMAO_MAEPAUK	twàn	twàn	t̪ w a n̪	manu1255		19.165	96.9531		1 6 7 4	ACXN	TWAN	131	131.T.C 131.W.C 131.A.V 131.N.c	2.0 1.5 1.5 0.8	t̪wan̪	0	53	Beat:53
35886	138_beat	Beat	GHEKO	GHEKO	pläi	pläi	p l ɛ i	geko1235		19.6741	96.5308		1 5 7 7	ACXZ	PLEI	41	41.P.C 41.L.C 41.E.V 41.I.V	2.0 1.5 1.5 0.8	plɛi	0	51	Beat:51
35887	138_beat	Beat	PADAUNG	PADAUNG	plai	plai	p l ai	kaya1315		19.5183	97.4138		1 5 7	ACX	PLA	107	107.P.C 107.L.C 107.A.V	2.0 1.5 1.5	plai	0	51	Beat:51
35888	138_beat	Beat	YEINBA	YEINBA	pleᵗ	pleᵗ	p l e t̪̚	yinb1236		19.0383	97.2134		1 5 7 1	ACXN	PLET	157	157.P.C 157.L.C 157.E.V 157.T.c	2.0 1.5 1.5 0.8	plet̪̚	0	51	Beat:51
35889	138_beat	Beat	YEINBA	YEINBA	dai	dai	d̪ ai	yinb1236		19.0383	97.2134		1 7	AX	TA	157	157.T.C 157.A.V	2.0 1.5	d̪ai	0	53	Beat:53
35890	138_beat	Beat	YEINBA	YEINBA	blà̃	blà̃	b l ã	yinb1236		19.0383	97.2134		1 5 7	ACX	PLA	157	157.P.C 157.L.C 157.A.V	2.0 1.5 1.5	blã	0	51	Beat:51
35892	138_beat	Beat	ZAVEIN	ZAVEIN	wàn	wàn	w a n̪	zaye1235		20.16	96.908		6 7 4	AXN	WAN	159	159.W.C 159.A.V 159.N.c	2.0 1.5 0.8	wan̪	0	52	Beat:52
35893	138_beat	Beat	MOPWABILICHI	MOPWA_BILICHI	là	là	l a	bili1249					5 7	AX	LA	97	97.L.C 97.A.V	2.0 1.5	la	0	51	Beat:51
35894	138_beat	Beat	MOPWADERMUHA	MOPWA_DERMUHA	ɣu	ɣu	ɣ u	derm1238					3 7	AX	GY	98	98.G.C 98.Y.V	2.0 1.5	ɣu	0	54	Beat:54
35901	138_beat	Beat	MANCHATIORPATNI	MANCHATI_OR_PATNI	teṅ	teṅ	t̪ e ŋ	karb1241		25.7317	93.0462		1 7 4	AXN	TEN	86	86.T.C 86.E.V 86.N.c	2.0 1.5 0.8	t̪eŋ	0	53	Beat:53
35902	138_beat	Beat	CHAMBALAHULI	CHAMBA_LAHULI	tē	tē	t̪ eː	cham1308					1 7	AX	TE	23	23.T.C 23.E.V	2.0 1.5	t̪eː	0	53	Beat:53
35903	138_beat	Beat	KANASHI	KANASHI	to	to	t̪ o	kana1283		32.2843	77.1553		1 7	AX	TU	54	54.T.C 54.U.V	2.0 1.5	t̪o	0	53	Beat:53
35904	138_beat	Beat	KANAURI	KANAURI	toṅ	toṅ	t̪ o ŋ	kinn1249		31.3688	78.3148		1 7 4	AXN	TUN	55	55.T.C 55.U.V 55.N.c	2.0 1.5 0.8	t̪oŋ	0	53	Beat:53
35905	138_beat	Beat	RANGKAS	RANGKAS	sā	sā	s ʌː	rang1266		29.2278	80.0845		3 7	AX	SE	118	118.S.C 118.E.V	2.0 1.5	sʌː	0	54	Beat:54
35906	138_beat	Beat	DHIMAL	DHIMAL	dåṅ-hai	dåṅ-hai	d̪ ɔ ŋ + h ai	dhim1246		26.6283	88.3798		1 7 4 9 3 7	AXN_AX	TUN_HA	35	35.T.C 35.U.V 35.N.c 35._._ 35.H.C 35.A.V	2.0 1.5 0.8 0.0 2.0 1.5	d̪ɔŋ+hai	0	53	Beat:53
35907	138_beat	Beat	THAMI	THAMI	ṛe	ṛe	ɽ e	than1259		28.7554	85.7657		5 7	AX	RE	145	145.R.C 145.E.V	2.0 1.5	ɽe	0	56	Beat:56
35908	138_beat	Beat	LIMBU	LIMBU	hip	hip	h i p	limb1266		27.2703	87.8859		3 7 1	AXN	HIP	77	77.H.C 77.I.V 77.P.c	2.0 1.5 0.8	hip	0	57	Beat:57
35909	138_beat	Beat	YAKHA	YAKHA	mōk	mōk	m oː k	yakk1236		27.3714	87.9306		4 7 1	AXN	MUK	155	155.M.C 155.U.V 155.K.c	2.0 1.5 0.8	moːk	0	55	Beat:55
35910	138_beat	Beat	KHAMBU	KHAMBU	ker	ker	k e r	kham1288					1 7 5	AXN	KER	60	60.K.C 60.E.V 60.R.c	2.0 1.5 0.8	ker	0	60	Beat:60
35911	138_beat	Beat	BAHING	BAHING	tö-p	tö-p	t̪ ø + p	bahi1252		27.3323	86.3949		1 7 9 1	AX_A	TU_P	10	10.T.C 10.U.V 10._._ 10.P.C	2.0 1.5 0.0 2.0	t̪ø+p	0	53	Beat:53
35912	138_beat	Beat	BALALI	BALALI	lo	lo	l o	nort2727		27.5102	87.2157		5 7	AX	LU	11	11.L.C 11.U.V	2.0 1.5	lo	0	51	Beat:51
35913	138_beat	Beat	SANGPANG	SANGPANG	yo	yo	j o	samp1249		27.2999	87.0019		6 7	AX	JU	123	123.J.C 123.U.V	2.0 1.5	jo	0	59	Beat:59
35914	138_beat	Beat	SANGPANG	SANGPANG	kīr	kīr	k iː r	samp1249		27.2999	87.0019		1 7 5	AXN	KIR	123	123.K.C 123.I.V 123.R.c	2.0 1.5 0.8	kiːr	0	60	Beat:60
35915	138_beat	Beat	SANGPANG	SANGPANG	yōp	yōp	j oː p	samp1249		27.2999	87.0019		6 7 1	AXN	JUP	123	123.J.C 123.U.V 123.P.c	2.0 1.5 0.8	joːp	0	59	Beat:59
35916	138_beat	Beat	LOHORONG	LOHORONG	lō	lō	l oː	nort2727		27.5102	87.2157		5 7	AX	LU	80	80.L.C 80.U.V	2.0 1.5	loː	0	51	Beat:51
35917	138_beat	Beat	LAMBICHHONG	LAMBICHHONG	te	te	t̪ e	yakk1236		27.3714	87.9306		1 7	AX	TE	74	74.T.C 74.E.V	2.0 1.5	t̪e	0	53	Beat:53
35918	138_beat	Beat	WALING	WALING	mō	mō	m oː	wali1261		26.6369	86.4837		4 7	AX	MU	152	152.M.C 152.U.V	2.0 1.5	moː	0	55	Beat:55
35919	138_beat	Beat	CHHINGTANG	CHHINGTANG	tē	tē	t̪ eː	chhi1245		26.961	87.1899		1 7	AX	TE	26	26.T.C 26.E.V	2.0 1.5	t̪eː	0	53	Beat:53
35920	138_beat	Beat	RUNGCHHENBUNG	RUNGCHHENBUNG	mo	mo	m o	bant1281		27.12147	87.04738		4 7	AX	MU	122	122.M.C 122.U.V	2.0 1.5	mo	0	55	Beat:55
35921	138_beat	Beat	DUNGMALI	DUNGMALI	no	no	n̪ o	dung1252		26.9813	87.3328		4 7	AX	NU	38	38.N.C 38.U.V	2.0 1.5	n̪o	0	57	Beat:57
35922	138_beat	Beat	RODONGORCHAMLING	RODONG_OR_CHAMLING	chaī	chaī	tʃ ʌ iː	caml1239		27.3371	86.7612		1 7 7	AXZ	TEI	120	120.T.C 120.E.V 120.I.V	2.0 1.5 0.8	tʃʌiː	0	53	Beat:53
35923	138_beat	Beat	NACHHERENG	NACHHERENG	yōp	yōp	j oː p	nach1240		27.4202	86.7001		6 7 1	AXN	JUP	103	103.J.C 103.U.V 103.P.c	2.0 1.5 0.8	joːp	0	59	Beat:59
35924	138_beat	Beat	KULUNG	KULUNG	kēr	kēr	k eː r	kulu1253		27.1606	87.5717		1 7 5	AXN	KER	67	67.K.C 67.E.V 67.R.c	2.0 1.5 0.8	keːr	0	60	Beat:60
35925	138_beat	Beat	THULUNG	THULUNG	yal	yal	j ʌ l	drun1238		28.00792	98.49449		6 7 5	AXN	JEL	148	148.J.C 148.E.V 148.L.c	2.0 1.5 0.8	jʌl	0	59	Beat:59
35926	138_beat	Beat	CHAURASYA	CHAURASYA	tūp	tūp	t̪ uː p	wamb1257		27.14808	86.47646		1 7 1	AXN	TYP	25	25.T.C 25.Y.V 25.P.c	2.0 1.5 0.8	t̪uːp	0	53	Beat:53
35927	138_beat	Beat	KHALING	KHALING	yāl	yāl	j ʌː l	khal1275		27.3912	87.5053		6 7 5	AXN	JEL	59	59.J.C 59.E.V 59.L.c	2.0 1.5 0.8	jʌːl	0	59	Beat:59
35928	138_beat	Beat	DUMI	DUMI	klēn	klēn	k l eː n̪	dumi1241		27.45849	86.75699		1 5 7 4	ACXN	KLEN	37	37.K.C 37.L.C 37.E.V 37.N.c	2.0 1.5 1.5 0.8	kleːn̪	0	51	Beat:51
35929	138_beat	Beat	RAIORJIMDAR	RAI_OR_JIMDAR	yum	yum	j u m	athp1241		26.8794	87.3296		6 7 4	AXN	JYM	117	117.J.C 117.Y.V 117.M.c	2.0 1.5 0.8	jum	0	59	Beat:59
35930	138_beat	Beat	RAIORJIMDAR	RAI_OR_JIMDAR	yom	yom	j o m	athp1241		26.8794	87.3296		6 7 4	AXN	JUM	117	117.J.C 117.U.V 117.M.c	2.0 1.5 0.8	jom	0	59	Beat:59
35931	138_beat	Beat	VAYUORHAYU	VAYU_OR_HAYU	to-ᵖ (tō)	to-ᵖ	t̪ o + p̚	wayu1241		27.3047	86.1227		1 7 9 1	AX_A	TU_P	151	151.T.C 151.U.V 151._._ 151.P.C	2.0 1.5 0.0 2.0	t̪o+p̚	0	53	Beat:53
35932	138_beat	Beat	GURUNG	GURUNG	tõ	tõ	t̪ õ	east2345		28.4368	84.58145		1 7	AX	TU	42	42.T.C 42.U.V	2.0 1.5	t̪õ	0	53	Beat:53
35933	138_beat	Beat	GURUNG	GURUNG	hoā	hoā	h o ʌː	east2345		28.4368	84.58145		3 7 7	AXZ	HUE	42	42.H.C 42.U.V 42.E.V	2.0 1.5 0.8	hoʌː	0	54	Beat:54
35934	138_beat	Beat	MURMI	MURMI	rop	rop	r o p	west2415		28.0239	85.0563		5 7 1	AXN	RUP	102	102.R.C 102.U.V 102.P.c	2.0 1.5 0.8	rop	0	56	Beat:56
35935	138_beat	Beat	MURMI	MURMI	puṅ	puṅ	p u ŋ	west2415		28.0239	85.0563		1 7 4	AXN	PYN	102	102.P.C 102.Y.V 102.N.c	2.0 1.5 0.8	puŋ	0	51	Beat:51
35936	138_beat	Beat	SUNWAR	SUNWAR	tup	tup	t̪ u p	sunw1242		27.5201	86.2476		1 7 1	AXN	TYP	134	134.T.C 134.Y.V 134.P.c	2.0 1.5 0.8	t̪up	0	53	Beat:53
35937	138_beat	Beat	MAGARI	MAGARI	duṅ	duṅ	d̪ u ŋ	west2418		28.2462	83.511		1 7 4	AXN	TYN	84	84.T.C 84.Y.V 84.N.c	2.0 1.5 0.8	d̪uŋ	0	53	Beat:53
35938	138_beat	Beat	MAGARI	MAGARI	dā-t’uk	dā-t’uk	d̪ ʌː + t̪ʱ u k	west2418		28.2462	83.511		1 7 9 1 7 1	AX_AXN	TE_TYK	84	84.T.C 84.E.V 84._._ 84.T.C 84.Y.V 84.K.c	2.0 1.5 0.0 2.0 1.5 0.8	d̪ʌː+t̪ʱuk	0	53	Beat:53
35939	138_beat	Beat	NEWARI	NEWARI	dā	dā	d̪ ʌː	newa1246		27.2614	84.9577		1 7	AX	TE	105	105.T.C 105.E.V	2.0 1.5	d̪ʌː	0	53	Beat:53
35940	138_beat	Beat	PADIPAHRIORPAHI	PADI_PAHRI_OR_PAHI	dā	dā	d̪ ʌː	newa1246		27.2614	84.9577		1 7	AX	TE	108	108.T.C 108.E.V	2.0 1.5	d̪ʌː	0	53	Beat:53
35941	138_beat	Beat	RONGORLEPCHA	RONG_OR_LEPCHA	būk	būk	b uː k	lepc1244		27.0869	88.5726		1 7 1	AXN	PYK	121	121.P.C 121.Y.V 121.K.c	2.0 1.5 0.8	buːk	0	51	Beat:51
35942	138_beat	Beat	RONGORLEPCHA	RONG_OR_LEPCHA	lyūᵖ	lyūᵖ	l j uː p̚	lepc1244		27.0869	88.5726		5 6 7 1	ACXN	LJYP	121	121.L.C 121.J.C 121.Y.V 121.P.c	2.0 1.5 1.5 0.8	ljuːp̚	0	59	Beat:59
35943	138_beat	Beat	TOTO	TOTO	sāpu (?)	sāpu	s ʌː p u	toto1302		26.67	88.975		3 7 1 7	AXBZ	SEPY	150	150.S.C 150.E.V 150.P.C 150.Y.V	2.0 1.5 1.75 0.8	sʌːpu	0	51	Beat:51
35946	138_beat	Beat	ABOR	ABOR	pā	pā	p ʌː	bori1243		27.62812	94.3538		1 7	AX	PE	1	1.P.C 1.E.V	2.0 1.5	pʌː	0	51	Beat:51
35947	138_beat	Beat	MIRI	MIRI	pā	pā	p ʌː	misi1242		27.418	94.69		1 7	AX	PE	95	95.P.C 95.E.V	2.0 1.5	pʌː	0	51	Beat:51
35948	138_beat	Beat	DAFLA	DAFLA	ma	ma	m ʌ	nyis1236		27.278263	93.675529		4 7	AX	ME	31	31.M.C 31.E.V	2.0 1.5	mʌ	0	55	Beat:55
35949	138_beat	Beat	MISHMIDIGARU	MISHMI_DIGARU	hābā	hābā	h ʌː b ʌː	diga1241		28.4993	96.8803		3 7 1 7	AXBZ	HEPE	96	96.H.C 96.E.V 96.P.C 96.E.V	2.0 1.5 1.75 0.8	hʌːbʌː	0	51	Beat:51
35950	138_beat	Beat	MIJU	MIJU	pōṅ	pōṅ	p oː ŋ	miju1243		28.4732	97.0444		1 7 4	AXN	PUN	93	93.P.C 93.U.V 93.N.c	2.0 1.5 0.8	poːŋ	0	51	Beat:51
35951	138_beat	Beat	LOLONI	LOLO_NI	˨˦ dä	˨˦ dä	²⁴ + d̪ ɛ	axiy1235		24.6009	103.713		8 9 1 7	T_AX	2_TE	81	81.2.T 81._._ 81.T.C 81.E.V	1.0 0.0 1.6 3.0	²⁴+d̪ɛ	0	53	Beat:53
35955	138_beat	Beat	LOLOPHO	LOLO_PHO	dä°	dä°	d̪ ɛ +	lagh1245		22.2674	103.929		1 7 9	AX_	TE_	82	82.T.C 82.E.V 82._._	2.0 1.5 0.0	d̪ɛ+	0	53	Beat:53
35956	138_beat	Beat	AKAKA	A_KA_KA	di	di	d̪ i	akha1245		21.2309	100.964		1 7	AX	TI	3	3.T.C 3.I.V	2.0 1.5	d̪i	0	53	Beat:53
35957	138_beat	Beat	AKO	A_KO	tö	tö	t̪ ø	akoo1247					1 7	AX	TU	4	4.T.C 4.U.V	2.0 1.5	t̪ø	0	53	Beat:53
35958	138_beat	Beat	LISU	LISU	˦ tī (with a stick)	˦ tī	⁴ + t̪ iː	lisu1250		26.91	98.94		8 9 1 7	T_AX	6_TI	79	79.6.T 79._._ 79.T.C 79.I.V	1.0 0.0 1.6 3.0	⁴+t̪iː	0	53	Beat:53
35959	138_beat	Beat	LISU	LISU	˨ dɯ (with the hand)	˨ dɯ	² + d̪ ɯ	lisu1250		26.91	98.94		8 9 1 7	T_AX	6_TI	79	79.6.T 79._._ 79.T.C 79.I.V	1.0 0.0 1.6 3.0	²+d̪ɯ	0	53	Beat:53
35960	138_beat	Beat	LISHAOYAOYIN	LISHAO_YAOYIN	ti	ti	t̪ i	lisu1250		26.91	98.94		1 7	AX	TI	78	78.T.C 78.I.V	2.0 1.5	t̪i	0	53	Beat:53
35961	138_beat	Beat	MOSHO	MO_SHO	la	la	l ʌ	lahu1253		21.2701	100.214		5 7	AX	LE	100	100.L.C 100.E.V	2.0 1.5	lʌ	0	51	Beat:51
35962	138_beat	Beat	LAHU	LAHU	då	då	d̪ ɔ	lahu1253		21.2701	100.214		1 7	AX	TU	71	71.T.C 71.U.V	2.0 1.5	d̪ɔ	0	53	Beat:53
35963	138_beat	Beat	PYENORPYIN	PYEN_OR_PYIN	tü	tü	t̪ y	pyen1239		20.759	100.029		1 7	AX	TY	116	116.T.C 116.Y.V	2.0 1.5	t̪y	0	53	Beat:53
35964	138_beat	Beat	NUNG	NUNG	dip	dip	d̪ i p	nung1282		27.2887	98.7333		1 7 1	AXN	TIP	106	106.T.C 106.I.V 106.P.c	2.0 1.5 0.8	d̪ip	0	53	Beat:53
35965	138_beat	Beat	GYAORUNG	GYAORUNG	tà-tūp	tà-tūp	t̪ a + t̪ uː p	jiar1240		31.60295	102.22875		1 7 9 1 7 1	AX_AXN	TA_TYP	44	44.T.C 44.A.V 44._._ 44.T.C 44.Y.V 44.P.c	2.0 1.5 0.0 2.0 1.5 0.8	t̪a+t̪uːp	0	53	Beat:53
35966	138_beat	Beat	MANYAK	MANYAK	dàn-t’å	dàn-t’å	d̪ a n̪ + t̪ʱ ɔ	muya1239		29.8226	102.205		1 7 4 9 1 7	AXN_AX	TAN_TU	88	88.T.C 88.A.V 88.N.c 88._._ 88.T.C 88.U.V	2.0 1.5 0.8 0.0 2.0 1.5	d̪an̪+t̪ʱɔ	0	53	Beat:53
35970	138_beat	Beat	BHOTIATIBETANWRITTEN	BHOTIA_TIBETAN_WRITTEN	rduṅ	rduṅ	r d̪ u ŋ	sikk1242		27.85795	88.59153		5 1 7 4	ACYN	RTYN	16	16.R.C 16.T.C 16.Y.V 16.N.c	2.0 1.5 1.3 0.8	rd̪uŋ	0	53	Beat:53
35972	138_beat	Beat	BALTI	BALTI	tᵉaṅ	tᵉaṅ	t̪ ĕ ʌ ŋ	balt1258		34.4491	77.2859		1 7 7 4	AXYN	TEEN	12	12.T.C 12.E.V 12.E.V 12.N.c	2.0 1.5 1.3 0.8	t̪ĕʌŋ	0	53	Beat:53
35973	138_beat	Beat	BALTI	BALTI	rduṅ	rduṅ	r d̪ u ŋ	balt1258		34.4491	77.2859		5 1 7 4	ACYN	RTYN	12	12.R.C 12.T.C 12.Y.V 12.N.c	2.0 1.5 1.3 0.8	rd̪uŋ	0	53	Beat:53
35974	138_beat	Beat	BHOTIAOFPURIK	BHOTIA_OF_PURIK	rduṅ	rduṅ	r d̪ u ŋ	puri1258		34.3386	76.0127		5 1 7 4	ACYN	RTYN	15	15.R.C 15.T.C 15.Y.V 15.N.c	2.0 1.5 1.3 0.8	rd̪uŋ	0	53	Beat:53
35975	138_beat	Beat	LADAKHI	LADAKHI	rduṅ	rduṅ	r d̪ u ŋ	lada1244		33.468	80.6013		5 1 7 4	ACYN	RTYN	69	69.R.C 69.T.C 69.Y.V 69.N.c	2.0 1.5 1.3 0.8	rd̪uŋ	0	53	Beat:53
35976	138_beat	Beat	LADAKHIOFSPITI	LADAKHI_OF_SPITI	gyap	gyap	gʲ ʌ p	spit1240		32.526	77.833		1 7 1	AXN	KEP	70	70.K.C 70.E.V 70.P.c	2.0 1.5 0.8	gʲʌp	1	60	Beat:60
35977	138_beat	Beat	KAGATE	KAGATE	rop	rop	r o p	kaga1252		27.4492	86.1675		5 7 1	AXN	RUP	53	53.R.C 53.U.V 53.P.c	2.0 1.5 0.8	rop	0	56	Beat:56
35978	138_beat	Beat	SHARPA	SHARPA	duṅ	duṅ	d̪ u ŋ	sher1255		27.674	86.9994		1 7 4	AXN	TYN	127	127.T.C 127.Y.V 127.N.c	2.0 1.5 0.8	d̪uŋ	0	53	Beat:53
35979	138_beat	Beat	DANJONGKA	DANJONGKA	tip	tip	t̪ i p	sikk1242		27.85795	88.59153		1 7 1	AXN	TIP	32	32.T.C 32.I.V 32.P.c	2.0 1.5 0.8	t̪ip	0	53	Beat:53
35980	138_beat	Beat	HLOKE	HLOKE	duṅ	duṅ	d̪ u ŋ	lowa1242		29.0324	83.8959		1 7 4	AXN	TYN	47	47.T.C 47.Y.V 47.N.c	2.0 1.5 0.8	d̪uŋ	0	53	Beat:53
35981	138_beat	Beat	BODOORBARA	BODO_OR_BARA	bu	bu	b u	bodo1269		26.1	92.0		1 7	AX	PY	17	17.P.C 17.Y.V	2.0 1.5	bu	0	51	Beat:51
35982	138_beat	Beat	LALUNG	LALUNG	ba-t’āl	ba-t’āl	b ʌ + t̪ʱ ʌː l	tiwa1253		26.0667	92.2583		1 7 9 1 7 5	AX_AXN	PE_TEL	73	73.P.C 73.E.V 73._._ 73.T.C 73.E.V 73.L.c	2.0 1.5 0.0 2.0 1.5 0.8	bʌ+t̪ʱʌːl	0	60	Beat:60
35983	138_beat	Beat	LALUNG	LALUNG	pa-t’āl	pa-t’āl	p ʌ + t̪ʱ ʌː l	tiwa1253		26.0667	92.2583		1 7 9 1 7 5	AX_AXN	PE_TEL	73	73.P.C 73.E.V 73._._ 73.T.C 73.E.V 73.L.c	2.0 1.5 0.0 2.0 1.5 0.8	pʌ+t̪ʱʌːl	0	60	Beat:60
35984	138_beat	Beat	DIMASA	DIMA_SA	šū	šū	ʃ uː	dima1251		25.4198	93.1806		3 7	AX	SY	36	36.S.C 36.Y.V	2.0 1.5	ʃuː	0	54	Beat:54
35985	138_beat	Beat	GAROACHIK	GARO_ACHIK	dǒk	dǒk	d̪ ɒ k	garo1247		25.2954	90.462		1 7 1	AXN	TOK	40	40.T.C 40.O.V 40.K.c	2.0 1.5 0.8	d̪ɒk	0	53	Beat:53
35986	138_beat	Beat	KOCH	KOCH	chum	chum	tʃ u m	koch1250		25.7962	90.2566		1 7 4	AXN	TYM	64	64.T.C 64.Y.V 64.M.c	2.0 1.5 0.8	tʃum	0	53	Beat:53
35987	138_beat	Beat	TIPURA	TIPURA	bu	bu	b u	kokb1239		23.1916	91.4673		1 7	AX	PY	149	149.P.C 149.Y.V	2.0 1.5	bu	0	51	Beat:51
35988	138_beat	Beat	DEURICHUTIYA	DEURI_CHUTIYA	bǒ	bǒ	b ɒ	deor1238		26.86152	93.70572		1 7	AX	PO	34	34.P.C 34.O.V	2.0 1.5	bɒ	0	51	Beat:51
35989	138_beat	Beat	ANGAMI	ANGAMI	vü	vü	ʋ y	anga1288		25.6841	93.8668		6 7	AX	WY	7	7.W.C 7.Y.V	2.0 1.5	ʋy	0	52	Beat:52
35990	138_beat	Beat	SEMA	SEMA	bu	bu	b u	sumi1235		25.9996	94.4235		1 7	AX	PY	124	124.P.C 124.Y.V	2.0 1.5	bu	0	51	Beat:51
35991	138_beat	Beat	SEMA	SEMA	he	he	h e	sumi1235		25.9996	94.4235		3 7	AX	HE	124	124.H.C 124.E.V	2.0 1.5	he	0	54	Beat:54
35992	138_beat	Beat	RENGMA	RENGMA	vü	vü	ʋ y	nort2725		26.4492	94.5683		6 7	AX	WY	119	119.W.C 119.Y.V	2.0 1.5	ʋy	0	52	Beat:52
35993	138_beat	Beat	KEZAMA	KEZAMA	dā	dā	d̪ ʌː	khez1235		25.7078	94.3114		1 7	AX	TE	58	58.T.C 58.E.V	2.0 1.5	d̪ʌː	0	53	Beat:53
35994	138_beat	Beat	SOPVOMA	SOPVOMA	dā	dā	d̪ ʌː	maon1238		25.3836	94.0035		1 7	AX	TE	133	133.T.C 133.E.V	2.0 1.5	d̪ʌː	0	53	Beat:53
35995	138_beat	Beat	AO	AO	zak	zak	z ʌ k	aona1235		26.3241	94.3824		3 7 1	AXN	SEK	8	8.S.C 8.E.V 8.K.c	2.0 1.5 0.8	zʌk	0	54	Beat:54
35996	138_beat	Beat	HLOTA	HLOTA	tāp	tāp	t̪ ʌː p	loth1237		26.01396	94.04355		1 7 1	AXN	TEP	48	48.T.C 48.E.V 48.P.c	2.0 1.5 0.8	t̪ʌːp	0	53	Beat:53
35997	138_beat	Beat	TENGSA	TENGSA	tap (?)	tap	t̪ ʌ p	tase1235		27.2572	96.3855		1 7 1	AXN	TEP	143	143.T.C 143.E.V 143.P.c	2.0 1.5 0.8	t̪ʌp	0	53	Beat:53
35998	138_beat	Beat	THUKUMI	THUKUMI	šik (?)	šik	ʃ i k	sang1321		25.8581	94.6279		3 7 1	AXN	SIK	147	147.S.C 147.I.V 147.K.c	2.0 1.5 0.8	ʃik	0	54	Beat:54
35999	138_beat	Beat	YACHUMI	YACHUMI	šik (?)	šik	ʃ i k	yimc1240		25.7675	94.8087		3 7 1	AXN	SIK	154	154.S.C 154.I.V 154.K.c	2.0 1.5 0.8	ʃik	0	54	Beat:54
36000	138_beat	Beat	TABLENG	TABLENG	šet	šet	ʃ e t̪	kony1248		26.6823	95.0598		3 7 1	AXN	SET	136	136.S.C 136.E.V 136.T.c	2.0 1.5 0.8	ʃet̪	0	54	Beat:54
36001	138_beat	Beat	TAMLU	TAMLU	up	up	u p	phom1236		26.4715	94.7476		7 1	XN	YP	137	137.Y.V 137.P.c	1.5 0.8	up	0	59	Beat:59
36002	138_beat	Beat	BANPARA	BANPARA	māi	māi	m aːi	wanc1238		26.2581	94.8936		4 7	AX	MA	14	14.M.C 14.A.V	2.0 1.5	maːi	0	55	Beat:55
36003	138_beat	Beat	NAMSANGIA	NAMSANGIA	vāt	vāt	ʋ ʌː t̪	noct1238		27.152	95.3903		6 7 1	AXN	WET	104	104.W.C 104.E.V 104.T.c	2.0 1.5 0.8	ʋʌːt̪	0	52	Beat:52
36004	138_beat	Beat	CHANG	CHANG	ṅàm	ṅàm	ŋ a m	chan1313		26.4336	94.9536		4 7 4	AXN	NAM	24	24.N.C 24.A.V 24.M.c	2.0 1.5 0.8	ŋam	0	57	Beat:57
36005	138_beat	Beat	MOSHANG	MOSHANG	dat (?)	dat	d̪ ʌ t̪	mosa1240		27.0964	95.9001		1 7 1	AXN	TET	99	99.T.C 99.E.V 99.T.c	2.0 1.5 0.8	d̪ʌt̪	0	53	Beat:53
36006	138_beat	Beat	EMPEO	EMPEO	bēō	bēō	b eː oː	zeme1240		25.3499	93.6463		1 7 7	AXZ	PEU	39	39.P.C 39.E.V 39.U.V	2.0 1.5 0.8	beːoː	0	51	Beat:51
36007	138_beat	Beat	KABUI	KABUI	bāi	bāi	b aːi	rong1266		25.098	93.7869		1 7	AX	PA	51	51.P.C 51.A.V	2.0 1.5	baːi	0	51	Beat:51
36008	138_beat	Beat	KHOIRAO	KHOIRAO	wū	wū	w uː	than1255		25.3472	93.8396		6 7	AX	WY	63	63.W.C 63.Y.V	2.0 1.5	wuː	0	52	Beat:52
36009	138_beat	Beat	MIKIR	MIKIR	chåk	chåk	tʃ ɔ k	karb1241		25.7317	93.0462		1 7 1	AXN	TUK	94	94.T.C 94.U.V 94.K.c	2.0 1.5 0.8	tʃɔk	0	53	Beat:53
36010	138_beat	Beat	MARAM	MARAM	lāk	lāk	l ʌː k	mara1379		25.4378	94.2205		5 7 1	AXN	LEK	89	89.L.C 89.E.V 89.K.c	2.0 1.5 0.8	lʌːk	0	51	Beat:51
36011	138_beat	Beat	KWOIRENG	KWOIRENG	lē-ā	lē-ā	l eː + ʌː	lian1251		25.16	93.542		5 7 9 7	AX_X	LE_E	68	68.L.C 68.E.V 68._._ 68.E.V	2.0 1.5 0.0 1.5	leː+ʌː	0	51	Beat:51
36012	138_beat	Beat	TANGKHUL	TANGKHUL	šao	šao	ʃ ʌ o	ukhr1238					3 7 7	AXZ	SEU	138	138.S.C 138.E.V 138.U.V	2.0 1.5 0.8	ʃʌo	0	54	Beat:54
36013	138_beat	Beat	PHADANG	PHADANG	mp’īt	mp’īt	m pʱ iː t̪	phad1238					4 1 7 1	ACYN	MPIT	110	110.M.C 110.P.C 110.I.V 110.T.c	2.0 1.5 1.3 0.8	mpʱiːt̪	0	51	Beat:51
36014	138_beat	Beat	KHANGOI	KHANGOI	kā-dāṅ	kā-dāṅ	k ʌː + d̪ ʌː ŋ	khan1277		25.73633	94.247299		1 7 9 1 7 4	AX_AXN	KE_TEN	62	62.K.C 62.E.V 62._._ 62.T.C 62.E.V 62.N.c	2.0 1.5 0.0 2.0 1.5 0.8	kʌː+d̪ʌːŋ	0	53	Beat:53
36015	138_beat	Beat	MARING	MARING	ūm	ūm	uː m	mari1416		24.2854	94.0723		7 4	XN	YM	90	90.Y.V 90.M.c	1.5 0.8	uːm	0	57	Beat:57
36016	138_beat	Beat	CHINGPAORKACHIN	CHINGPA_OR_KACHIN	kᵃyàᵗ	kᵃyàᵗ	k ă j a t̪̚	kach1280		25.4634	97.3278		1 7 6 7 1	AXBYN	KAJAT	29	29.K.C 29.A.V 29.J.C 29.A.V 29.T.c	2.0 1.5 1.75 1.3 0.8	kăjat̪̚	0	58	Beat:58
36018	138_beat	Beat	SINGPHO	SINGPHO	dūp	dūp	d̪ uː p	sing1264		27.296	95.606		1 7 1	AXN	TYP	130	130.T.C 130.Y.V 130.P.c	2.0 1.5 0.8	d̪uːp	0	53	Beat:53
36020	138_beat	Beat	MEITHEI	MEITHEI	p’ū	p’ū	pʱ uː	mani1292		24.4409	93.3426		1 7	AX	PY	92	92.P.C 92.Y.V	2.0 1.5	pʱuː	0	51	Beat:51
36021	138_beat	Beat	THADO	THADO	bē	bē	b eː	thad1238		24.096	93.722		1 7	AX	PE	144	144.P.C 144.E.V	2.0 1.5	beː	0	51	Beat:51
36022	138_beat	Beat	THADO	THADO	vō	vō	ʋ oː	thad1238		24.096	93.722		6 7	AX	WU	144	144.W.C 144.U.V	2.0 1.5	ʋoː	0	52	Beat:52
36023	138_beat	Beat	SIYIN	SIYIN	vāᵗ	vāᵗ	ʋ ʌː t̪̚	siyi1240		23.8192	93.6884		6 7 1	AXN	WET	132	132.W.C 132.E.V 132.T.c	2.0 1.5 0.8	ʋʌːt̪̚	0	52	Beat:52
36024	138_beat	Beat	LAI	LAI	veᵗ	veᵗ	ʋ e t̪̚	haka1240		22.8735	92.8208		6 7 1	AXN	WET	72	72.W.C 72.E.V 72.T.c	2.0 1.5 0.8	ʋet̪̚	0	52	Beat:52
36025	138_beat	Beat	LUSHEI	LUSHEI	vēl	vēl	ʋ eː l	lush1249		22.6138	92.6247		6 7 5	AXN	WEL	83	83.W.C 83.E.V 83.L.c	2.0 1.5 0.8	ʋeːl	0	52	Beat:52
36026	138_beat	Beat	LUSHEI	LUSHEI	vua	vua	ʋ u ʌ	lush1249		22.6138	92.6247		6 7 7	AXZ	WYE	83	83.W.C 83.Y.V 83.E.V	2.0 1.5 0.8	ʋuʌ	0	52	Beat:52
36027	138_beat	Beat	BANJOGI	BANJOGI	vūak	vūak	ʋ uː ʌ k	zotu1235		22.5298	93.29		6 7 7 1	AXYN	WYEK	13	13.W.C 13.Y.V 13.E.V 13.K.c	2.0 1.5 1.3 0.8	ʋuːʌk	0	52	Beat:52
36028	138_beat	Beat	PANKHU	PANKHU	jel	jel	dʑ e l	pank1249		22.6797	92.9461		2 7 5	AXN	CEL	109	109.C.C 109.E.V 109.L.c	2.0 1.5 0.8	dʑel	0	60	Beat:60
36029	138_beat	Beat	HRANGKHOL	HRANGKHOL	jēm	jēm	dʑ eː m	hran1239		24.4559	93.351		2 7 4	AXN	CEM	49	49.C.C 49.E.V 49.M.c	2.0 1.5 0.8	dʑeːm	0	57	Beat:57
36030	138_beat	Beat	HALLAM	HALLAM	jem	jem	dʑ e m	fala1243		23.7892833333	92.3254633333		2 7 4	AXN	CEM	45	45.C.C 45.E.V 45.M.c	2.0 1.5 0.8	dʑem	0	57	Beat:57
36031	138_beat	Beat	HALLAM	HALLAM	hem	hem	h e m	fala1243		23.7892833333	92.3254633333		3 7 4	AXN	HEM	45	45.H.C 45.E.V 45.M.c	2.0 1.5 0.8	hem	0	57	Beat:57
36032	138_beat	Beat	LANGRONG	LANGRONG	θūk	θūk	θ uː k	lang1312					3 7 1	AXN	DYK	75	75.D.C 75.Y.V 75.K.c	2.0 1.5 0.8	θuːk	0	54	Beat:54
36033	138_beat	Beat	LANGRONG	LANGRONG	hem	hem	h e m	lang1312					3 7 4	AXN	HEM	75	75.H.C 75.E.V 75.M.c	2.0 1.5 0.8	hem	0	57	Beat:57
36034	138_beat	Beat	AIMOL	AIMOL	vē	vē	ʋ eː	aimo1244		24.6437	94.3556		6 7	AX	WE	2	2.W.C 2.E.V	2.0 1.5	ʋeː	0	52	Beat:52
36035	138_beat	Beat	CHIRU	CHIRU	jēm	jēm	dʑ eː m	chir1283		25.4643	94.4072		2 7 4	AXN	CEM	30	30.C.C 30.E.V 30.M.c	2.0 1.5 0.8	dʑeːm	0	57	Beat:57
36036	138_beat	Beat	KOLHRENG	KOLHRENG	wēl	wēl	w eː l	kolh1240					6 7 5	AXN	WEL	65	65.W.C 65.E.V 65.L.c	2.0 1.5 0.8	weːl	0	52	Beat:52
36037	138_beat	Beat	KOM	KOM	wūk	wūk	w uː k	komi1270		24.8688	94.534		6 7 1	AXN	WYK	66	66.W.C 66.Y.V 66.K.c	2.0 1.5 0.8	wuːk	0	52	Beat:52
36038	138_beat	Beat	PURUM	PURUM	wēl	wēl	w eː l	puru1266		25.3887	95.0935		6 7 5	AXN	WEL	112	112.W.C 112.E.V 112.L.c	2.0 1.5 0.8	weːl	0	52	Beat:52
36039	138_beat	Beat	ANAL	ANAL	bon	bon	b o n̪	anal1239		24.0506	94.2806		1 7 4	AXN	PUN	5	5.P.C 5.U.V 5.N.c	2.0 1.5 0.8	bon̪	0	51	Beat:51
36040	138_beat	Beat	ANAL	ANAL	kē	kē	k eː	anal1239		24.0506	94.2806		1 7	AX	KE	5	5.K.C 5.E.V	2.0 1.5	keː	0	60	Beat:60
36041	138_beat	Beat	ANAL	ANAL	būm	būm	b uː m	anal1239		24.0506	94.2806		1 7 4	AXN	PYM	5	5.P.C 5.Y.V 5.M.c	2.0 1.5 0.8	buːm	0	51	Beat:51
36042	138_beat	Beat	HIROILAMGANG	HIROI_LAMGANG	prai	prai	p r ai	lamk1238		24.1523	94.2706		1 5 7	ACX	PRA	46	46.P.C 46.R.C 46.A.V	2.0 1.5 1.5	prai	0	51	Beat:51
36043	138_beat	Beat	TAUNGTHA	TAUNGTHA	wu	wu	w u	paok1235		20.211	97.5969		6 7	AX	WY	139	139.W.C 139.Y.V	2.0 1.5	wu	0	52	Beat:52
36044	138_beat	Beat	CHINBOK	CHINBOK	t’àt (?)	t’àt	t̪ʱ a t̪	munc1235		20.289	94.3929		1 7 1	AXN	TAT	27	27.T.C 27.A.V 27.T.c	2.0 1.5 0.8	t̪ʱat̪	0	53	Beat:53
36045	138_beat	Beat	YAWDWIN	YAWDWIN	t’ā	t’ā	t̪ʱ ʌː	munc1235		20.289	94.3929		1 7	AX	TE	156	156.T.C 156.E.V	2.0 1.5	t̪ʱʌː	0	53	Beat:53
36046	138_beat	Beat	CHINBON	CHINBON	hmwei	hmwei	h m w ei	chin1478		20.0776	94.0506		3 4 6 7	ACCX	HMWE	28	28.H.C 28.M.C 28.W.C 28.E.V	2.0 1.5 1.5 1.5	hmwei	0	52	Beat:52
36047	138_beat	Beat	CHINBON	CHINBON	twa	twa	t̪ w ʌ	chin1478		20.0776	94.0506		1 6 7	ACX	TWE	28	28.T.C 28.W.C 28.E.V	2.0 1.5 1.5	t̪wʌ	0	52	Beat:52
36048	138_beat	Beat	THAYETMYOCHIN	THAYETMYO_CHIN	dai	dai	d̪ ai	thay1247					1 7	AX	TA	146	146.T.C 146.A.V	2.0 1.5	d̪ai	0	53	Beat:53
36049	138_beat	Beat	SHOORKHYANG	SHO_OR_KHYANG	deṅ	deṅ	d̪ e ŋ	asho1236		21.393	93.5069		1 7 4	AXN	TEN	128	128.T.C 128.E.V 128.N.c	2.0 1.5 0.8	d̪eŋ	0	53	Beat:53
36050	138_beat	Beat	KHAMI	KHAMI	pā-k’ā	pā-k’ā	p ʌː + kʱ ʌː	kham1284					1 7 9 1 7	AX_AX	PE_KE	61	61.P.C 61.E.V 61._._ 61.K.C 61.E.V	2.0 1.5 0.0 2.0 1.5	pʌː+kʱʌː	0	51	Beat:51
36051	138_beat	Beat	ANDRO	ANDRO	tàn	tàn	t̪ a n̪	kadu1254					1 7 4	AXN	TAN	6	6.T.C 6.A.V 6.N.c	2.0 1.5 0.8	t̪an̪	0	53	Beat:53
36052	138_beat	Beat	SENGMAI	SENGMAI	tàn	tàn	t̪ a n̪	kadu1254					1 7 4	AXN	TAN	125	125.T.C 125.A.V 125.N.c	2.0 1.5 0.8	t̪an̪	0	53	Beat:53
36053	138_beat	Beat	CHAIREL	CHAIREL	d’ak	d’ak	d̪ʱ ʌ k	chai1254		24.30438	93.866431		1 7 1	AXN	TEK	22	22.T.C 22.E.V 22.K.c	2.0 1.5 0.8	d̪ʱʌk	0	53	Beat:53
36054	138_beat	Beat	KADU	KADU	˨˩ tàṅ	˨˩ tàṅ	²¹ + t̪ a ŋ	kadu1254					8 9 1 7 4	T_AXN	3_TAN	52	52.3.T 52._._ 52.T.C 52.A.V 52.N.c	1.0 0.0 1.6 3.0 0.5	²¹+t̪aŋ	0	53	Beat:53
36055	138_beat	Beat	SZIORATSI	SZI_OR_ATSI	nu	nu	n̪ u	zaiw1241		24.1726	98.3643		4 7	AX	NY	135	135.N.C 135.Y.V	2.0 1.5	n̪u	0	57	Beat:57
36056	138_beat	Beat	MARU	MARU	be	be	b e	maru1249		24.942535	99.8338		1 7	AX	PE	91	91.P.C 91.E.V	2.0 1.5	be	0	51	Beat:51
36057	138_beat	Beat	MAINGTHAORNGACHANG	MAINGTHA_OR_NGACHANG	tà	tà	t̪ a	acha1249		24.3479	97.7438		1 7	AX	TA	85	85.T.C 85.A.V	2.0 1.5	t̪a	0	53	Beat:53
36058	138_beat	Beat	PHUNSAMONG	PHUN_SAMONG	di	di	d̪ i	hpon1238		24.4606	97.1142		1 7	AX	TI	111	111.T.C 111.I.V	2.0 1.5	d̪i	0	53	Beat:53
36060	138_beat	Beat	MRU	MRU	tēp	tēp	t̪ eː p	mruu1242		24.154	90.6317		1 7 1	AXN	TEP	101	101.T.C 101.E.V 101.P.c	2.0 1.5 0.8	t̪eːp	0	53	Beat:53
36061	138_beat	Beat	BURMESEWRITTEN	BURMESE_WRITTEN	ruik	ruik	r u i k	nucl1310		20.7926	93.9665		5 7 7 1	AXYN	RYIK	19	19.R.C 19.Y.V 19.I.V 19.K.c	2.0 1.5 1.3 0.8	ruik	0	56	Beat:56
36063	138_beat	Beat	ARAKANESE	ARAKANESE	θet	θet	θ e t̪	marm1234		22.759948	92.210748		3 7 1	AXN	DET	9	9.D.C 9.E.V 9.T.c	2.0 1.5 0.8	θet̪	0	53	Beat:53
36064	138_beat	Beat	ARAKANESE	ARAKANESE	raik	raik	r ai k	marm1234		22.759948	92.210748		5 7 1	AXN	RAK	9	9.R.C 9.A.V 9.K.c	2.0 1.5 0.8	raik	0	56	Beat:56
36065	138_beat	Beat	TAUNGYO	TAUNGYO	ràt	ràt	r a t̪	taun1248		20.4104	96.7401		5 7 1	AXN	RAT	141	141.R.C 141.A.V 141.T.c	2.0 1.5 0.8	rat̪	0	56	Beat:56
36066	138_beat	Beat	DANU	DANU	yaiᵏ	yaiᵏ	j ai k̚	danu1251					6 7 1	AXN	JAK	33	33.J.C 33.A.V 33.K.c	2.0 1.5 0.8	jaik̚	0	59	Beat:59
36067	138_beat	Beat	INTHA	INTHA	raik	raik	r ai k	inth1239					5 7 1	AXN	RAK	50	50.R.C 50.A.V 50.K.c	2.0 1.5 0.8	raik	0	56	Beat:56
36068	138_beat	Beat	TAVOYAN	TAVOYAN	yaiᵏ	yaiᵏ	j ai k̚	tavo1242		14.1078	98.194		6 7 1	AXN	JAK	142	142.J.C 142.A.V 142.K.c	2.0 1.5 0.8	jaik̚	0	59	Beat:59
21309	109_before	Before	MANDARIN	MANDARIN	˨ ch’yen	˨ ch’yen	² + tʃʱ j e n̪	mand1415		40.0209	116.228		8 9 1 6 7 4	T_ACXN	6_TJEN	87	87.6.T 87._._ 87.T.C 87.J.C 87.E.V 87.N.c	1.0 0.0 1.6 1.2 3.0 0.5	²+tʃʱjen̪	0	70	Before:70
21310	109_before	Before	CANTONESE	CANTONESE	˨ tsīn	˨ tsīn	² + ts iː n̪	cant1236					8 9 2 7 4	T_AXN	6_CIN	21	21.6.T 21._._ 21.C.C 21.I.V 21.N.c	1.0 0.0 1.6 3.0 0.5	²+tsiːn̪	0	70	Before:70
21311	109_before	Before	CANTONESE	CANTONESE	˨ ts’īn ˨˩ min	˨ ts’īn ˨˩ min	² + tsʱ iː n̪ + ²¹ + m i n̪	cant1236					8 9 1 7 4 9 8 9 4 7 4	T_AXN_T_AXN	6_TIN_3_MIN	21	21.6.T 21._._ 21.T.C 21.I.V 21.N.c 21._._ 21.3.T 21._._ 21.M.C 21.I.V 21.N.c	1.0 0.0 1.6 3.0 0.5 0.0 1.0 0.0 1.6 3.0 0.5	²+tsʱiːn̪+²¹+min̪	0	70	Before:70
21312	109_before	Before	CANTONESE	CANTONESE	˨ ts’īn ˨˩ pīn	˨ ts’īn ˨˩ pīn	² + tsʱ iː n̪ + ²¹ + p iː n̪	cant1236					8 9 1 7 4 9 8 9 1 7 4	T_AXN_T_AXN	6_TIN_3_PIN	21	21.6.T 21._._ 21.T.C 21.I.V 21.N.c 21._._ 21.3.T 21._._ 21.P.C 21.I.V 21.N.c	1.0 0.0 1.6 3.0 0.5 0.0 1.0 0.0 1.6 3.0 0.5	²+tsʱiːn̪+²¹+piːn̪	0	70	Before:70
21321	109_before	Before	PWOLITERARY	PWO_LITERARY	˦ mē° ˨ ya	˦ mē° ˨ ya	⁴ + m eː + + ² + j ʌ	phra1235		18.0048	99.6382		8 9 4 7 9 9 8 9 6 7	T_AX__T_AX	6_ME__6_JE	114	114.6.T 114._._ 114.M.C 114.E.V 114._._ 114._._ 114.6.T 114._._ 114.J.C 114.E.V	1.0 0.0 1.6 3.0 0.0 0.0 1.0 0.0 1.6 3.0	⁴+meː++²+jʌ	0	72	Before:72
21322	109_before	Before	PWOBASSEIN	PWO_BASSEIN	l^à yà	l^à yà	l a + j a	pwow1235		17.3622	97.7044		5 7 9 6 7	AX_AX	LA_JA	113	113.L.C 113.A.V 113._._ 113.J.C 113.A.V	2.0 1.5 0.0 2.0 1.5	la+ja	0	63	Before:63
21323	109_before	Before	PWOMAULMEIN	PWO_MAULMEIN	l^à yà	l^à yà	l a + j a	pwoe1235		15.1915	98.7355		5 7 9 6 7	AX_AX	LA_JA	115	115.L.C 115.A.V 115._._ 115.J.C 115.A.V	2.0 1.5 0.0 2.0 1.5	la+ja	0	63	Before:63
21324	109_before	Before	TAUNGTHU	TAUNGTHU	sà ṅà	sà ṅà	s a + ŋ a	paok1235		20.211	97.5969		3 7 9 4 7	AX_AX	SA_NA	140	140.S.C 140.A.V 140._._ 140.N.C 140.A.V	2.0 1.5 0.0 2.0 1.5	sa+ŋa	0	63	Before:63
21325	109_before	Before	SGALITERARY	SGA_LITERARY	˧ mä° ˧ ñā	˧ mä° ˧ ñā	³ + m ɛ + + ³ + ɲ ʌː	sgaw1245		17.9872	97.7126		8 9 4 7 9 9 8 9 4 7	T_AX__T_AX	6_ME__6_NE	126	126.6.T 126._._ 126.M.C 126.E.V 126._._ 126._._ 126.6.T 126._._ 126.N.C 126.E.V	1.0 0.0 1.6 3.0 0.0 0.0 1.0 0.0 1.6 3.0	³+mɛ++³+ɲʌː	0	72	Before:72
21326	109_before	Before	SGALITERARY	SGA_LITERARY	˧ lö ˧ ñā	˧ lö ˧ ñā	³ + l ø + ³ + ɲ ʌː	sgaw1245		17.9872	97.7126		8 9 5 7 9 8 9 4 7	T_AX_T_AX	6_LU_6_NE	126	126.6.T 126._._ 126.L.C 126.U.V 126._._ 126.6.T 126._._ 126.N.C 126.E.V	1.0 0.0 1.6 3.0 0.0 1.0 0.0 1.6 3.0	³+lø+³+ɲʌː	0	63	Before:63
21328	109_before	Before	BWE	BWE	lå må	lå må	l ɔ + m ɔ	bwek1238		18.9796	96.9936		5 7 9 4 7	AX_AX	LU_MU	20	20.L.C 20.U.V 20._._ 20.M.C 20.U.V	2.0 1.5 0.0 2.0 1.5	lɔ+mɔ	0	63	Before:63
21329	109_before	Before	WEWAW	WEWAW	^àme ye	^àme ye	a m e + j e	wewa1238		19.020577	96.540526		7 4 7 9 6 7	XBZ_AX	AME_JE	153	153.A.V 153.M.C 153.E.V 153._._ 153.J.C 153.E.V	1.5 1.75 0.8 0.0 2.0 1.5	ame+je	0	72	Before:72
21330	109_before	Before	KARENBYU	KARENBYU	^àu su	^àu su	a u + s u	geba1237		19.4991	96.9492		7 7 9 3 7	XZ_AX	AY_SY	56	56.A.V 56.Y.V 56._._ 56.S.C 56.Y.V	1.5 0.8 0.0 2.0 1.5	au+su	0	78	Before:78
21331	109_before	Before	KARENNI	KARENNI	dö ñi	dö ñi	d̪ ø + ɲ i	east2342		19.8939	98.3359		1 7 9 4 7	AX_AX	TU_NI	57	57.T.C 57.U.V 57._._ 57.N.C 57.I.V	2.0 1.5 0.0 2.0 1.5	d̪ø+ɲi	0	63	Before:63
21332	109_before	Before	YINTALAE	YINTALAE	dü ṅà	dü ṅà	d̪ y + ŋ a	yint1235		18.9378	97.3368		1 7 9 4 7	AX_AX	TY_NA	158	158.T.C 158.Y.V 158._._ 158.N.C 158.A.V	2.0 1.5 0.0 2.0 1.5	d̪y+ŋa	0	63	Before:63
21333	109_before	Before	SINHMAOMAEPAUK	SIN_HMAO_MAEPAUK	à ri	à ri	a + r i	manu1255		19.165	96.9531		7 9 5 7	X_AX	A_RI	131	131.A.V 131._._ 131.R.C 131.I.V	1.5 0.0 2.0 1.5	a+ri	0	67	Before:67
21334	109_before	Before	GHEKO	GHEKO	^àri	^àri	a r i	geko1235		19.6741	96.5308		7 5 7	XBZ	ARI	41	41.A.V 41.R.C 41.I.V	1.5 1.75 0.8	ari	0	67	Before:67
21335	109_before	Before	PADAUNG	PADAUNG	^àre	^àre	a r e	kaya1315		19.5183	97.4138		7 5 7	XBZ	ARE	107	107.A.V 107.R.C 107.E.V	1.5 1.75 0.8	are	0	67	Before:67
21336	109_before	Before	YEINBA	YEINBA	lü ṅà	lü ṅà	l y + ŋ a	yinb1236		19.0383	97.2134		5 7 9 4 7	AX_AX	LY_NA	157	157.L.C 157.Y.V 157._._ 157.N.C 157.A.V	2.0 1.5 0.0 2.0 1.5	ly+ŋa	0	63	Before:63
21338	109_before	Before	ZAVEIN	ZAVEIN	à ṅà	à ṅà	a + ŋ a	zaye1235		20.16	96.908		7 9 4 7	X_AX	A_NA	159	159.A.V 159._._ 159.N.C 159.A.V	1.5 0.0 2.0 1.5	a+ŋa	0	63	Before:63
21339	109_before	Before	ZAVEIN	ZAVEIN	min-yà	min-yà	m i n̪ + j a	zaye1235		20.16	96.908		4 7 4 9 6 7	AXN_AX	MIN_JA	159	159.M.C 159.I.V 159.N.c 159._._ 159.J.C 159.A.V	2.0 1.5 0.8 0.0 2.0 1.5	min̪+ja	0	72	Before:72
21340	109_before	Before	ZAVEIN	ZAVEIN	le kyi	le kyi	l e + kʲ i	zaye1235		20.16	96.908		5 7 9 1 7	AX_AX	LE_KI	159	159.L.C 159.E.V 159._._ 159.K.C 159.I.V	2.0 1.5 0.0 2.0 1.5	le+kʲi	0	63	Before:63
21341	109_before	Before	MOPWABILICHI	MOPWA_BILICHI	^àm lo	^àm lo	a m + l o	bili1249					7 4 9 5 7	XN_AX	AM_LU	97	97.A.V 97.M.c 97._._ 97.L.C 97.U.V	1.5 0.8 0.0 2.0 1.5	am+lo	0	84	Before:84
21342	109_before	Before	MOPWADERMUHA	MOPWA_DERMUHA	à mi lå	à mi lå	a + m i + l ɔ	derm1238					7 9 4 7 9 5 7	X_AX_AX	A_MI_LU	98	98.A.V 98._._ 98.M.C 98.I.V 98._._ 98.L.C 98.U.V	1.5 0.0 2.0 1.5 0.0 2.0 1.5	a+mi+lɔ	0	85	Before:85
21349	109_before	Before	MANCHATIORPATNI	MANCHATI_OR_PATNI	tuï	tuï	t̪ u ɪ	karb1241		25.7317	93.0462		1 7 7	AXZ	TYI	86	86.T.C 86.Y.V 86.I.V	2.0 1.5 0.8	t̪uɪ	0	66	Before:66
21350	109_before	Before	MANCHATIORPATNI	MANCHATI_OR_PATNI	kachaṅ	kachaṅ	k ʌ tʃ ʌ ŋ	karb1241		25.7317	93.0462		1 7 1 7 4	AXBYN	KETEN	86	86.K.C 86.E.V 86.T.C 86.E.V 86.N.c	2.0 1.5 1.75 1.3 0.8	kʌtʃʌŋ	0	66	Before:66
21351	109_before	Before	CHAMBALAHULI	CHAMBA_LAHULI	tūri	tūri	t̪ uː r i	cham1308					1 7 5 7	AXBZ	TYRI	23	23.T.C 23.Y.V 23.R.C 23.I.V	2.0 1.5 1.75 0.8	t̪uːri	0	67	Before:67
21352	109_before	Before	KANASHI	KANASHI	āgraṅ	āgraṅ	ʌː g r ʌ ŋ	kana1283		32.2843	77.1553		7 1 5 7 4	XBCYN	EKREN	54	54.E.V 54.K.C 54.R.C 54.E.V 54.N.c	1.5 1.75 1.5 1.3 0.8	ʌːgrʌŋ	0	71	Before:71
21353	109_before	Before	KANASHI	KANASHI	mandris	mandris	m ʌ n̪ d̪ r i s	kana1283		32.2843	77.1553		4 7 4 1 5 7 3	AXMBCYN	MENTRIS	54	54.M.C 54.E.V 54.N.c 54.T.C 54.R.C 54.I.V 54.S.c	2.0 1.5 1.1 1.75 1.5 1.3 0.8	mʌn̪d̪ris	0	90	Before:90
21354	109_before	Before	KANAURI	KANAURI	oms	oms	o m s	kinn1249		31.3688	78.3148		7 4 3	XLN	UMS	55	55.U.V 55.M.c 55.S.c	1.5 1.1 0.8	oms	0	77	Before:77
21355	109_before	Before	KANAURI	KANAURI	oms-kō	oms-kō	o m s + k oː	kinn1249		31.3688	78.3148		7 4 3 9 1 7	XLN_AX	UMS_KU	55	55.U.V 55.M.c 55.S.c 55._._ 55.K.C 55.U.V	1.5 1.1 0.8 0.0 2.0 1.5	oms+koː	0	77	Before:77
21356	109_before	Before	RANGKAS	RANGKAS	gān-šyū	gān-šyū	g ʌː n̪ + ʃ j uː	rang1266		29.2278	80.0845		1 7 4 9 3 6 7	AXN_ACX	KEN_SJY	118	118.K.C 118.E.V 118.N.c 118._._ 118.S.C 118.J.C 118.Y.V	2.0 1.5 0.8 0.0 2.0 1.5 1.5	gʌːn̪+ʃjuː	0	88	Before:88
21357	109_before	Before	DHIMAL	DHIMAL	låṅ	låṅ	l ɔ ŋ	dhim1246		26.6283	88.3798		5 7 4	AXN	LUN	35	35.L.C 35.U.V 35.N.c	2.0 1.5 0.8	lɔŋ	0	74	Before:74
21358	109_before	Before	DHIMAL	DHIMAL	låm-på	låm-på	l ɔ m + p ɔ	dhim1246		26.6283	88.3798		5 7 4 9 1 7	AXN_AX	LUM_PU	35	35.L.C 35.U.V 35.M.c 35._._ 35.P.C 35.U.V	2.0 1.5 0.8 0.0 2.0 1.5	lɔm+pɔ	0	76	Before:76
21359	109_before	Before	THAMI	THAMI	hā-bi	hā-bi	h ʌː + b i	than1259		28.7554	85.7657		3 7 9 1 7	AX_AX	HE_PI	145	145.H.C 145.E.V 145._._ 145.P.C 145.I.V	2.0 1.5 0.0 2.0 1.5	hʌː+bi	0	87	Before:87
21360	109_before	Before	LIMBU	LIMBU	tō-gaṅ	tō-gaṅ	t̪ oː + g ʌ ŋ	limb1266		27.2703	87.8859		1 7 9 1 7 4	AX_AXN	TU_KEN	77	77.T.C 77.U.V 77._._ 77.K.C 77.E.V 77.N.c	2.0 1.5 0.0 2.0 1.5 0.8	t̪oː+gʌŋ	0	65	Before:65
21361	109_before	Before	YAKHA	YAKHA	ā-t’um	ā-t’um	ʌː + t̪ʱ u m	yakk1236		27.3714	87.9306		7 9 1 7 4	X_AXN	E_TYM	155	155.E.V 155._._ 155.T.C 155.Y.V 155.M.c	1.5 0.0 2.0 1.5 0.8	ʌː+t̪ʱum	0	64	Before:64
21362	109_before	Before	KHAMBU	KHAMBU	lais-pi	lais-pi	l ai s + p i	kham1288					5 7 3 9 1 7	AXN_AX	LAS_PI	60	60.L.C 60.A.V 60.S.c 60._._ 60.P.C 60.I.V	2.0 1.5 0.8 0.0 2.0 1.5	lais+pi	0	76	Before:76
21363	109_before	Before	BAHING	BAHING	ṅalla	ṅalla	ŋ ʌ l l ʌ	bahi1252		27.3323	86.3949		4 7 5 5 7	AXMBZ	NELLE	10	10.N.C 10.E.V 10.L.c 10.L.C 10.E.V	2.0 1.5 1.1 1.75 0.8	ŋʌllʌ	0	68	Before:68
21364	109_before	Before	RAIORJIMDAR	RAI_OR_JIMDAR	lal-bu	lal-bu	l ʌ l + b u	athp1241		26.8794	87.3296		5 7 5 9 1 7	AXN_AX	LEL_PY	117	117.L.C 117.E.V 117.L.c 117._._ 117.P.C 117.Y.V	2.0 1.5 0.8 0.0 2.0 1.5	lʌl+bu	0	76	Before:76
21365	109_before	Before	VAYUORHAYU	VAYU_OR_HAYU	hon-ko	hon-ko	h o n̪ + k o	wayu1241		27.3047	86.1227		3 7 4 9 1 7	AXN_AX	HUN_KU	151	151.H.C 151.U.V 151.N.c 151._._ 151.K.C 151.U.V	2.0 1.5 0.8 0.0 2.0 1.5	hon̪+ko	0	88	Before:88
21366	109_before	Before	GURUNG	GURUNG	nin-hundi	nin-hundi	n̪ i n̪ + h u n̪ d̪ i	east2345		28.4368	84.58145		4 7 4 9 3 7 4 1 7	AXN_AXMBZ	NIN_HYNTI	42	42.N.C 42.I.V 42.N.c 42._._ 42.H.C 42.Y.V 42.N.c 42.T.C 42.I.V	2.0 1.5 0.8 0.0 2.0 1.5 1.1 1.75 0.8	n̪in̪+hun̪d̪i	0	75	Before:75
21367	109_before	Before	MURMI	MURMI	g’ā-ch’ā	g’ā-ch’ā	gʱ ʌː + tʃʱ ʌː	west2415		28.0239	85.0563		1 7 9 1 7	AX_AX	KE_TE	102	102.K.C 102.E.V 102._._ 102.T.C 102.E.V	2.0 1.5 0.0 2.0 1.5	gʱʌː+tʃʱʌː	0	64	Before:64
21368	109_before	Before	SUNWAR	SUNWAR	ṅuiṅ-ti	ṅuiṅ-ti	ŋ u i ŋ + t̪ i	sunw1242		27.5201	86.2476		4 7 7 4 9 1 7	AXYN_AX	NYIN_TI	134	134.N.C 134.Y.V 134.I.V 134.N.c 134._._ 134.T.C 134.I.V	2.0 1.5 1.3 0.8 0.0 2.0 1.5	ŋuiŋ+t̪i	0	75	Before:75
21369	109_before	Before	MAGARI	MAGARI	ag’er-lak	ag’er-lak	ʌ gʱ e r + l ʌ k	west2418		28.2462	83.511		7 1 7 5 9 5 7 1	XBYN_AXN	EKER_LEK	84	84.E.V 84.K.C 84.E.V 84.R.c 84._._ 84.L.C 84.E.V 84.K.c	1.5 1.75 1.3 0.8 0.0 2.0 1.5 0.8	ʌgʱer+lʌk	0	73	Before:73
21370	109_before	Before	NEWARI	NEWARI	hneone	hneone	h n̪ e o n̪ e	newa1246		27.2614	84.9577		3 4 7 7 4 7	ACXYBZ	HNEUNE	105	105.H.C 105.N.C 105.E.V 105.U.V 105.N.C 105.E.V	2.0 1.5 1.5 1.3 1.75 0.8	hn̪eon̪e	0	86	Before:86
21371	109_before	Before	NEWARI	NEWARI	hnā-pā	hnā-pā	h n̪ ʌː + p ʌː	newa1246		27.2614	84.9577		3 4 7 9 1 7	ACX_AX	HNE_PE	105	105.H.C 105.N.C 105.E.V 105._._ 105.P.C 105.E.V	2.0 1.5 1.5 0.0 2.0 1.5	hn̪ʌː+pʌː	0	87	Before:87
21372	109_before	Before	PADIPAHRIORPAHI	PADI_PAHRI_OR_PAHI	hnor-k’e	hnor-k’e	h n̪ o r + kʱ e	newa1246		27.2614	84.9577		3 4 7 5 9 1 7	ACXN_AX	HNUR_KE	108	108.H.C 108.N.C 108.U.V 108.R.c 108._._ 108.K.C 108.E.V	2.0 1.5 1.5 0.8 0.0 2.0 1.5	hn̪or+kʱe	0	87	Before:87
21373	109_before	Before	RONGORLEPCHA	RONG_OR_LEPCHA	nahān	nahān	n̪ ʌ h ʌː n̪	lepc1244		27.0869	88.5726		4 7 3 7 4	AXBYN	NEHEN	121	121.N.C 121.E.V 121.H.C 121.E.V 121.N.c	2.0 1.5 1.75 1.3 0.8	n̪ʌhʌːn̪	0	75	Before:75
21374	109_before	Before	TOTO	TOTO	dōṅāṅtā	dōṅāṅtā	d̪ oː ŋ ʌː ŋ t̪ ʌː	toto1302		26.67	88.975		1 7 4 7 4 1 7	AXBYMBZ	TUNENTE	150	150.T.C 150.U.V 150.N.C 150.E.V 150.N.c 150.T.C 150.E.V	2.0 1.5 1.75 1.3 1.1 1.75 0.8	d̪oːŋʌːŋt̪ʌː	0	66	Before:66
21376	109_before	Before	ABOR	ABOR	kē-rā-pü	kē-rā-pü	k eː + r ʌː + p y	bori1243		27.62812	94.3538		1 7 9 5 7 9 1 7	AX_AX_AX	KE_RE_PY	1	1.K.C 1.E.V 1._._ 1.R.C 1.E.V 1._._ 1.P.C 1.Y.V	2.0 1.5 0.0 2.0 1.5 0.0 2.0 1.5	keː+rʌː+py	0	61	Before:61
21377	109_before	Before	MIRI	MIRI	kē-rā-pü	kē-rā-pü	k eː + r ʌː + p y	misi1242		27.418	94.69		1 7 9 5 7 9 1 7	AX_AX_AX	KE_RE_PY	95	95.K.C 95.E.V 95._._ 95.R.C 95.E.V 95._._ 95.P.C 95.Y.V	2.0 1.5 0.0 2.0 1.5 0.0 2.0 1.5	keː+rʌː+py	0	61	Before:61
21378	109_before	Before	DAFLA	DAFLA	kol-ga	kol-ga	k o l + g ʌ	nyis1236		27.278263	93.675529		1 7 5 9 1 7	AXN_AX	KUL_KE	31	31.K.C 31.U.V 31.L.c 31._._ 31.K.C 31.E.V	2.0 1.5 0.8 0.0 2.0 1.5	kol+gʌ	0	73	Before:73
21379	109_before	Before	LOLONI	LOLO_NI	˦˨ ṅ’e ˦ che	˦˨ ṅ’e ˦ che	⁴² + ŋ e + ⁴ + tʃ e	axiy1235		24.6009	103.713		8 9 4 7 9 8 9 1 7	T_AX_T_AX	3_NE_6_TE	81	81.3.T 81._._ 81.N.C 81.E.V 81._._ 81.6.T 81._._ 81.T.C 81.E.V	1.0 0.0 1.6 3.0 0.0 1.0 0.0 1.6 3.0	⁴²+ŋe+⁴+tʃe	0	75	Before:75
21383	109_before	Before	LOLOPHO	LOLO_PHO	˦ a ˦˨ hö	˦ a ˦˨ hö	⁴ + ʌ + ⁴² + h ø	lagh1245		22.2674	103.929		8 9 7 9 8 9 3 7	T_X_T_AX	6_E_3_HU	82	82.6.T 82._._ 82.E.V 82._._ 82.3.T 82._._ 82.H.C 82.U.V	1.0 0.0 3.0 0.0 1.0 0.0 1.6 3.0	⁴+ʌ+⁴²+hø	0	81	Before:81
21384	109_before	Before	AKAKA	A_KA_KA	là ni	là ni	l a + n̪ i	akha1245		21.2309	100.964		5 7 9 4 7	AX_AX	LA_NI	3	3.L.C 3.A.V 3._._ 3.N.C 3.I.V	2.0 1.5 0.0 2.0 1.5	la+n̪i	0	63	Before:63
21385	109_before	Before	AKO	A_KO	là nī	là nī	l a + n̪ iː	akoo1247					5 7 9 4 7	AX_AX	LA_NI	4	4.L.C 4.A.V 4._._ 4.N.C 4.I.V	2.0 1.5 0.0 2.0 1.5	la+n̪iː	0	63	Before:63
21386	109_before	Before	LISU	LISU	˦ ǎ ˨ và° ˦ sī	˦ ǎ ˨ và° ˦ sī	⁴ + æ + ² + ʋ a + + ⁴ + s iː	lisu1250		26.91	98.94		8 9 7 9 8 9 6 7 9 9 8 9 3 7	T_X_T_AX__T_AX	6_E_6_WA__6_SI	79	79.6.T 79._._ 79.E.V 79._._ 79.6.T 79._._ 79.W.C 79.A.V 79._._ 79._._ 79.6.T 79._._ 79.S.C 79.I.V	1.0 0.0 3.0 0.0 1.0 0.0 1.6 3.0 0.0 0.0 1.0 0.0 1.6 3.0	⁴+æ+²+ʋa++⁴+siː	0	80	Before:80
21387	109_before	Before	MOSHO	MO_SHO	tsū bē tsū (of time)	tsū bē tsū	ts uː + b eː + ts uː	lahu1253		21.2701	100.214		2 7 9 1 7 9 2 7	AX_AX_AX	CY_PE_CY	100	100.C.C 100.Y.V 100._._ 100.P.C 100.E.V 100._._ 100.C.C 100.Y.V	2.0 1.5 0.0 2.0 1.5 0.0 2.0 1.5	tsuː+beː+tsuː	0	64	Before:64
21388	109_before	Before	PYENORPYIN	PYEN_OR_PYIN	nà kà	nà kà	n̪ a + k a	pyen1239		20.759	100.029		4 7 9 1 7	AX_AX	NA_KA	116	116.N.C 116.A.V 116._._ 116.K.C 116.A.V	2.0 1.5 0.0 2.0 1.5	n̪a+ka	0	63	Before:63
21389	109_before	Before	NUNG	NUNG	uṅ bü	uṅ bü	u ŋ + b y	nung1282		27.2887	98.7333		7 4 9 1 7	XN_AX	YN_PY	106	106.Y.V 106.N.c 106._._ 106.P.C 106.Y.V	1.5 0.8 0.0 2.0 1.5	uŋ+by	0	70	Before:70
21390	109_before	Before	BHOTIATIBETANWRITTEN	BHOTIA_TIBETAN_WRITTEN	gdoṅ-la	gdoṅ-la	g d̪ o ŋ + l ʌ	sikk1242		27.85795	88.59153		1 1 7 4 9 5 7	ACYN_AX	KTUN_LE	16	16.K.C 16.T.C 16.U.V 16.N.c 16._._ 16.L.C 16.E.V	2.0 1.5 1.3 0.8 0.0 2.0 1.5	gd̪oŋ+lʌ	0	70	Before:70
21393	109_before	Before	BALTI	BALTI	dunuk	dunuk	d̪ u n̪ u k	balt1258		34.4491	77.2859		1 7 4 7 1	AXBYN	TYNYK	12	12.T.C 12.Y.V 12.N.C 12.Y.V 12.K.c	2.0 1.5 1.75 1.3 0.8	d̪un̪uk	0	66	Before:66
21394	109_before	Before	BALTI	BALTI	dunu	dunu	d̪ u n̪ u	balt1258		34.4491	77.2859		1 7 4 7	AXBZ	TYNY	12	12.T.C 12.Y.V 12.N.C 12.Y.V	2.0 1.5 1.75 0.8	d̪un̪u	0	66	Before:66
21395	109_before	Before	BALTI	BALTI	šitī-a	šitī-a	ʃ i t̪ iː + ʌ	balt1258		34.4491	77.2859		3 7 1 7 9 7	AXBZ_X	SITI_E	12	12.S.C 12.I.V 12.T.C 12.I.V 12._._ 12.E.V	2.0 1.5 1.75 0.8 0.0 1.5	ʃit̪iː+ʌ	0	69	Before:69
21396	109_before	Before	BHOTIAOFPURIK	BHOTIA_OF_PURIK	šitī-a	šitī-a	ʃ i t̪ iː + ʌ	puri1258		34.3386	76.0127		3 7 1 7 9 7	AXBZ_X	SITI_E	15	15.S.C 15.I.V 15.T.C 15.I.V 15._._ 15.E.V	2.0 1.5 1.75 0.8 0.0 1.5	ʃit̪iː+ʌ	0	69	Before:69
21397	109_before	Before	LADAKHI	LADAKHI	dun-la	dun-la	d̪ u n̪ + l ʌ	lada1244		33.468	80.6013		1 7 4 9 5 7	AXN_AX	TYN_LE	69	69.T.C 69.Y.V 69.N.c 69._._ 69.L.C 69.E.V	2.0 1.5 0.8 0.0 2.0 1.5	d̪un̪+lʌ	0	70	Before:70
21398	109_before	Before	LADAKHIOFSPITI	LADAKHI_OF_SPITI	dun-nǟ	dun-nǟ	d̪ u n̪ + n̪ ɛː	spit1240		32.526	77.833		1 7 4 9 4 7	AXN_AX	TYN_NE	70	70.T.C 70.Y.V 70.N.c 70._._ 70.N.C 70.E.V	2.0 1.5 0.8 0.0 2.0 1.5	d̪un̪+n̪ɛː	0	70	Before:70
21399	109_before	Before	KAGATE	KAGATE	ṅe-la	ṅe-la	ŋ e + l ʌ	kaga1252		27.4492	86.1675		4 7 9 5 7	AX_AX	NE_LE	53	53.N.C 53.E.V 53._._ 53.L.C 53.E.V	2.0 1.5 0.0 2.0 1.5	ŋe+lʌ	0	75	Before:75
21400	109_before	Before	SHARPA	SHARPA	doṅ-la	doṅ-la	d̪ o ŋ + l ʌ	sher1255		27.674	86.9994		1 7 4 9 5 7	AXN_AX	TUN_LE	127	127.T.C 127.U.V 127.N.c 127._._ 127.L.C 127.E.V	2.0 1.5 0.8 0.0 2.0 1.5	d̪oŋ+lʌ	0	70	Before:70
21401	109_before	Before	SHARPA	SHARPA	duṅ-la	duṅ-la	d̪ u ŋ + l ʌ	sher1255		27.674	86.9994		1 7 4 9 5 7	AXN_AX	TYN_LE	127	127.T.C 127.Y.V 127.N.c 127._._ 127.L.C 127.E.V	2.0 1.5 0.8 0.0 2.0 1.5	d̪uŋ+lʌ	0	70	Before:70
21402	109_before	Before	DANJONGKA	DANJONGKA	hen-lä	hen-lä	h e n̪ + l ɛ	sikk1242		27.85795	88.59153		3 7 4 9 5 7	AXN_AX	HEN_LE	32	32.H.C 32.E.V 32.N.c 32._._ 32.L.C 32.E.V	2.0 1.5 0.8 0.0 2.0 1.5	hen̪+lɛ	0	70	Before:70
21403	109_before	Before	HLOKE	HLOKE	ṅan-lä	ṅan-lä	ŋ ʌ n̪ + l ɛ	lowa1242		29.0324	83.8959		4 7 4 9 5 7	AXN_AX	NEN_LE	47	47.N.C 47.E.V 47.N.c 47._._ 47.L.C 47.E.V	2.0 1.5 0.8 0.0 2.0 1.5	ŋʌn̪+lɛ	0	70	Before:70
